[
  {
    "code": "UTK",
    "name": "Utirik Airport",
    "city": "Utirik Island",
    "country": "MH",
    "type": "small_airport",
    "latitude": 11.222219,
    "longitude": 169.851429
  },
  {
    "code": "OCA",
    "name": "Ocean Reef Club Airport",
    "city": "Key Largo",
    "country": "US",
    "type": "small_airport",
    "latitude": 25.325399398804,
    "longitude": -80.274803161621
  },
  {
    "code": "CSE",
    "name": "Crested Butte Airpark",
    "city": "Crested Butte",
    "country": "US",
    "type": "small_airport",
    "latitude": 38.851918,
    "longitude": -106.928341
  },
  {
    "code": "CUS",
    "name": "Columbus Airport",
    "city": "Columbus",
    "country": "US",
    "type": "small_airport",
    "latitude": 31.823898,
    "longitude": -107.629924
  },
  {
    "code": "JCY",
    "name": "LBJ Ranch Airport",
    "city": "Stonewall",
    "country": "US",
    "type": "small_airport",
    "latitude": 30.251801,
    "longitude": -98.622498
  },
  {
    "code": "NUP",
    "name": "Nunapitchuk Airport",
    "city": "Nunapitchuk",
    "country": "US",
    "type": "small_airport",
    "latitude": 60.905591,
    "longitude": -162.440454
  },
  {
    "code": "ICY",
    "name": "Icy Bay Airport",
    "city": "Icy Bay",
    "country": "US",
    "type": "small_airport",
    "latitude": 59.966269,
    "longitude": -141.660118
  },
  {
    "code": "KKK",
    "name": "Kalakaket Creek AS Airport",
    "city": "Kalakaket Creek",
    "country": "US",
    "type": "small_airport",
    "latitude": 64.4166256967,
    "longitude": -156.820392609
  },
  {
    "code": "MHS",
    "name": "Dunsmuir Muni-Mott Airport",
    "city": "Dunsmuir",
    "country": "US",
    "type": "small_airport",
    "latitude": 41.263199,
    "longitude": -122.272003
  },
  {
    "code": "NIR",
    "name": "Chase Field Industrial Airport",
    "city": "Beeville",
    "country": "US",
    "type": "small_airport",
    "latitude": 28.362444,
    "longitude": -97.661917
  },
  {
    "code": "GCT",
    "name": "Grand Canyon Bar Ten Airstrip",
    "city": "Littlefield",
    "country": "US",
    "type": "small_airport",
    "latitude": 36.257984,
    "longitude": -113.231063
  },
  {
    "code": "LVD",
    "name": "Lime Village Airport",
    "city": "Lime Village",
    "country": "US",
    "type": "small_airport",
    "latitude": 61.3591003418,
    "longitude": -155.440002441
  },
  {
    "code": "HGZ",
    "name": "Hog River Airport",
    "city": "Hogatza",
    "country": "US",
    "type": "small_airport",
    "latitude": 66.176133,
    "longitude": -155.684816
  },
  {
    "code": "OTN",
    "name": "Ed-Air Airport",
    "city": "Oaktown",
    "country": "US",
    "type": "small_airport",
    "latitude": 38.851782,
    "longitude": -87.49987
  },
  {
    "code": "TLF",
    "name": "Telida Airport",
    "city": "Telida",
    "country": "US",
    "type": "small_airport",
    "latitude": 63.393902,
    "longitude": -153.268997
  },
  {
    "code": "BZT",
    "name": "Eagle Air Park",
    "city": "Brazoria",
    "country": "US",
    "type": "small_airport",
    "latitude": 28.982200622559,
    "longitude": -95.579696655273
  },
  {
    "code": "BYW",
    "name": "Blakely Island Airport",
    "city": "Blakely Island",
    "country": "US",
    "type": "small_airport",
    "latitude": 48.579162,
    "longitude": -122.823844
  },
  {
    "code": "DRF",
    "name": "Drift River Airport",
    "city": "Kenai",
    "country": "US",
    "type": "small_airport",
    "latitude": 60.588901519800004,
    "longitude": -152.162002563
  },
  {
    "code": "BDF",
    "name": "Rinkenberger Restricted Landing Area",
    "city": "Bradford",
    "country": "US",
    "type": "small_airport",
    "latitude": 41.230899810800004,
    "longitude": -89.61569976810001
  },
  {
    "code": "TEH",
    "name": "Tetlin Airport",
    "city": "Tetlin",
    "country": "US",
    "type": "small_airport",
    "latitude": 63.124618,
    "longitude": -142.518005
  },
  {
    "code": "VRS",
    "name": "Roy Otten Memorial Airfield",
    "city": "Versailles",
    "country": "US",
    "type": "small_airport",
    "latitude": 38.427799224854,
    "longitude": -92.875198364258
  },
  {
    "code": "ATT",
    "name": "Atmautluak Airport",
    "city": "Atmautluak",
    "country": "US",
    "type": "small_airport",
    "latitude": 60.866699,
    "longitude": -162.272996
  },
  {
    "code": "LIV",
    "name": "Livengood Camp Airport",
    "city": "Livengood",
    "country": "US",
    "type": "small_airport",
    "latitude": 65.467,
    "longitude": -148.6534
  },
  {
    "code": "PDB",
    "name": "Pedro Bay Airport",
    "city": "Pedro Bay",
    "country": "US",
    "type": "small_airport",
    "latitude": 59.796925,
    "longitude": -154.129994
  },
  {
    "code": "KOZ",
    "name": "Ouzinkie Airport",
    "city": "Ouzinkie",
    "country": "US",
    "type": "small_airport",
    "latitude": 57.942094,
    "longitude": -152.464314
  },
  {
    "code": "TNK",
    "name": "Tununak Airport",
    "city": "Tununak",
    "country": "US",
    "type": "small_airport",
    "latitude": 60.569638,
    "longitude": -165.246649
  },
  {
    "code": "MNT",
    "name": "Minto Al Wright Airport",
    "city": "Minto",
    "country": "US",
    "type": "small_airport",
    "latitude": 65.147991,
    "longitude": -149.368658
  },
  {
    "code": "WKK",
    "name": "Aleknagik / New Airport",
    "city": "Aleknagik",
    "country": "US",
    "type": "medium_airport",
    "latitude": 59.2826004028,
    "longitude": -158.617996216
  },
  {
    "code": "RFK",
    "name": "Rollang Field",
    "city": "Rolling Fork",
    "country": "US",
    "type": "small_airport",
    "latitude": 32.953543,
    "longitude": -90.845144
  },
  {
    "code": "NNK",
    "name": "Naknek Airport",
    "city": "Naknek",
    "country": "US",
    "type": "small_airport",
    "latitude": 58.735633,
    "longitude": -157.02216
  },
  {
    "code": "BCS",
    "name": "Southern Seaplane Airport",
    "city": "Belle Chasse",
    "country": "US",
    "type": "small_airport",
    "latitude": 29.866078,
    "longitude": -90.021608
  },
  {
    "code": "MMN",
    "name": "Minute Man Air Field",
    "city": "Stow",
    "country": "US",
    "type": "small_airport",
    "latitude": 42.460298,
    "longitude": -71.519031
  },
  {
    "code": "BWL",
    "name": "Earl Henry Airport",
    "city": "Blackwell",
    "country": "US",
    "type": "small_airport",
    "latitude": 36.7958984375,
    "longitude": -97.3170013428
  },
  {
    "code": "CWS",
    "name": "Center Island Airport",
    "city": "Center Island",
    "country": "US",
    "type": "small_airport",
    "latitude": 48.490046,
    "longitude": -122.831612
  },
  {
    "code": "TEK",
    "name": "Tatitlek Airport",
    "city": "Tatitlek",
    "country": "US",
    "type": "small_airport",
    "latitude": 60.871449,
    "longitude": -146.690297
  },
  {
    "code": "DUF",
    "name": "Pine Island Airport",
    "city": "Corolla",
    "country": "US",
    "type": "small_airport",
    "latitude": 36.252744,
    "longitude": -75.785256
  },
  {
    "code": "SSW",
    "name": "Stuart Island Airpark",
    "city": "Friday Harbor",
    "country": "US",
    "type": "small_airport",
    "latitude": 48.673379,
    "longitude": -123.175439
  },
  {
    "code": "FOB",
    "name": "Fort Bragg Airport",
    "city": "Fort Bragg",
    "country": "US",
    "type": "small_airport",
    "latitude": 39.472445,
    "longitude": -123.795319
  },
  {
    "code": "AXB",
    "name": "Maxson Airfield",
    "city": "Alexandria Bay",
    "country": "US",
    "type": "small_airport",
    "latitude": 44.312002,
    "longitude": -75.90034
  },
  {
    "code": "REE",
    "name": "Reese Airpark",
    "city": "Lubbock",
    "country": "US",
    "type": "small_airport",
    "latitude": 33.590301513672,
    "longitude": -102.03700256348
  },
  {
    "code": "WDN",
    "name": "Waldron Airstrip",
    "city": "Eastsound",
    "country": "US",
    "type": "small_airport",
    "latitude": 48.71141,
    "longitude": -123.018208
  },
  {
    "code": "CHU",
    "name": "Chuathbaluk Airport",
    "city": "Chuathbaluk",
    "country": "US",
    "type": "small_airport",
    "latitude": 61.579102,
    "longitude": -159.216003
  },
  {
    "code": "UGS",
    "name": "Ugashik Airport",
    "city": "Ugashik",
    "country": "US",
    "type": "small_airport",
    "latitude": 57.523476,
    "longitude": -157.396344
  },
  {
    "code": "KLL",
    "name": "Levelock Airport",
    "city": "Levelock",
    "country": "US",
    "type": "small_airport",
    "latitude": 59.12606,
    "longitude": -156.860906
  },
  {
    "code": "WTL",
    "name": "Tuntutuliak Airport",
    "city": "Tuntutuliak",
    "country": "US",
    "type": "small_airport",
    "latitude": 60.351243,
    "longitude": -162.654476
  },
  {
    "code": "TWA",
    "name": "Twin Hills Airport",
    "city": "Twin Hills",
    "country": "US",
    "type": "small_airport",
    "latitude": 59.074713,
    "longitude": -160.274992
  },
  {
    "code": "KCQ",
    "name": "Chignik Lake Airport",
    "city": "Chignik Lake",
    "country": "US",
    "type": "small_airport",
    "latitude": 56.255001,
    "longitude": -158.774994
  },
  {
    "code": "AAD",
    "name": "Adado Airport",
    "city": "Adado",
    "country": "SO",
    "type": "small_airport",
    "latitude": 6.095802,
    "longitude": 46.6375
  },
  {
    "code": "ABP",
    "name": "Atkamba Airport",
    "city": "Atkamba Mission",
    "country": "PG",
    "type": "small_airport",
    "latitude": -6.06462,
    "longitude": 141.095173
  },
  {
    "code": "ACM",
    "name": "Arica Airport",
    "city": "Arica",
    "country": "CO",
    "type": "small_airport",
    "latitude": -2.143713,
    "longitude": -71.75935
  },
  {
    "code": "ADV",
    "name": "El Daein Airport",
    "city": "El Daein",
    "country": "SD",
    "type": "small_airport",
    "latitude": 11.4023,
    "longitude": 26.1186
  },
  {
    "code": "AEE",
    "name": "Adareil Airport",
    "city": "Adar",
    "country": "SS",
    "type": "small_airport",
    "latitude": 10.053611,
    "longitude": 32.959444
  },
  {
    "code": "AEQ",
    "name": "Ar Horqin Airport",
    "city": "Chifeng",
    "country": "CN",
    "type": "small_airport",
    "latitude": 43.908407,
    "longitude": 120.15099
  },
  {
    "code": "AFT",
    "name": "Afutara Aerodrome",
    "city": "Bila",
    "country": "SB",
    "type": "small_airport",
    "latitude": -9.191389,
    "longitude": 160.948611
  },
  {
    "code": "RNA",
    "name": "Ulawa Airport",
    "city": "Arona",
    "country": "SB",
    "type": "small_airport",
    "latitude": -9.86054358262,
    "longitude": 161.979546547
  },
  {
    "code": "ATD",
    "name": "Uru Harbour Airport",
    "city": "Atoifi",
    "country": "SB",
    "type": "small_airport",
    "latitude": -8.87333,
    "longitude": 161.011002
  },
  {
    "code": "VEV",
    "name": "Barakoma Airport",
    "city": "Barakoma",
    "country": "SB",
    "type": "small_airport",
    "latitude": -7.912779808044434,
    "longitude": 156.70599365234375
  },
  {
    "code": "BPF",
    "name": "Batuna Aerodrome",
    "city": "Batuna Mission Station",
    "country": "SB",
    "type": "small_airport",
    "latitude": -8.56202777778,
    "longitude": 158.119305556
  },
  {
    "code": "GEF",
    "name": "Geva Airport",
    "city": "Liangia",
    "country": "SB",
    "type": "small_airport",
    "latitude": -7.575829982757568,
    "longitude": 156.5970001220703
  },
  {
    "code": "AGG",
    "name": "Angoram Airport",
    "city": "Angoram",
    "country": "PG",
    "type": "small_airport",
    "latitude": -4.057077,
    "longitude": 144.073841
  },
  {
    "code": "AKS",
    "name": "Gwaunaru'u Airport",
    "city": "Auki",
    "country": "SB",
    "type": "small_airport",
    "latitude": -8.70257,
    "longitude": 160.682007
  },
  {
    "code": "BNY",
    "name": "Bellona/Anua Airport",
    "city": "Anua",
    "country": "SB",
    "type": "small_airport",
    "latitude": -11.302222222200001,
    "longitude": 159.798333333
  },
  {
    "code": "CHY",
    "name": "Choiseul Bay Airport",
    "city": "Choiseul Bay",
    "country": "SB",
    "type": "small_airport",
    "latitude": -6.711944,
    "longitude": 156.396111
  },
  {
    "code": "BAS",
    "name": "Ballalae Airport",
    "city": "Ballalae",
    "country": "SB",
    "type": "small_airport",
    "latitude": -6.990745,
    "longitude": 155.886656
  },
  {
    "code": "FRE",
    "name": "Fera/Maringe Airport",
    "city": "Fera Island",
    "country": "SB",
    "type": "small_airport",
    "latitude": -8.1075,
    "longitude": 159.576996
  },
  {
    "code": "HIR",
    "name": "Honiara International Airport",
    "city": "Honiara",
    "country": "SB",
    "type": "large_airport",
    "latitude": -9.428,
    "longitude": 160.054993
  },
  {
    "code": "MBU",
    "name": "Babanakira Airport",
    "city": "Mbambanakira",
    "country": "SB",
    "type": "small_airport",
    "latitude": -9.7475,
    "longitude": 159.839005
  },
  {
    "code": "AVU",
    "name": "Avu Avu Airport",
    "city": "Avu Avu",
    "country": "SB",
    "type": "small_airport",
    "latitude": -9.868333,
    "longitude": 160.410556
  },
  {
    "code": "IRA",
    "name": "Ngorangora Airport",
    "city": "Kirakira",
    "country": "SB",
    "type": "small_airport",
    "latitude": -10.449700355500001,
    "longitude": 161.897994995
  },
  {
    "code": "SCZ",
    "name": "Santa Cruz/Graciosa Bay/Luova Airport",
    "city": "Santa Cruz/Graciosa Bay/Luova",
    "country": "SB",
    "type": "small_airport",
    "latitude": -10.7203,
    "longitude": 165.794998
  },
  {
    "code": "MUA",
    "name": "Munda Airport",
    "city": "Munda",
    "country": "SB",
    "type": "medium_airport",
    "latitude": -8.32797,
    "longitude": 157.263
  },
  {
    "code": "GZO",
    "name": "Nusatupe Airport",
    "city": "Gizo",
    "country": "SB",
    "type": "small_airport",
    "latitude": -8.09778022766,
    "longitude": 156.863998413
  },
  {
    "code": "MNY",
    "name": "Mono Airport",
    "city": "Stirling Island",
    "country": "SB",
    "type": "small_airport",
    "latitude": -7.41694,
    "longitude": 155.565002
  },
  {
    "code": "PRS",
    "name": "Parasi Airport",
    "city": "Parasi",
    "country": "SB",
    "type": "small_airport",
    "latitude": -9.641670227050781,
    "longitude": 161.4250030517578
  },
  {
    "code": "RNL",
    "name": "Rennell/Tingoa Airport",
    "city": "Rennell Island",
    "country": "SB",
    "type": "small_airport",
    "latitude": -11.55,
    "longitude": 160.062778
  },
  {
    "code": "EGM",
    "name": "Sege Airport",
    "city": "Sege",
    "country": "SB",
    "type": "small_airport",
    "latitude": -8.57889,
    "longitude": 157.876007
  },
  {
    "code": "NNB",
    "name": "Santa Ana Airport",
    "city": "Santa Ana Island",
    "country": "SB",
    "type": "small_airport",
    "latitude": -10.847994,
    "longitude": 162.454108
  },
  {
    "code": "RUS",
    "name": "Marau Airport",
    "city": "Marau",
    "country": "SB",
    "type": "small_airport",
    "latitude": -9.86167,
    "longitude": 160.824997
  },
  {
    "code": "VAO",
    "name": "Suavanao Airport",
    "city": "Suavanao",
    "country": "SB",
    "type": "small_airport",
    "latitude": -7.58556,
    "longitude": 158.731003
  },
  {
    "code": "XYA",
    "name": "Yandina Airport",
    "city": "Yandina",
    "country": "SB",
    "type": "small_airport",
    "latitude": -9.092816,
    "longitude": 159.21841
  },
  {
    "code": "AGK",
    "name": "Kagua Airport",
    "city": "Kagua",
    "country": "PG",
    "type": "small_airport",
    "latitude": -6.396388888890001,
    "longitude": 143.853611111
  },
  {
    "code": "KGE",
    "name": "Kaghau Airport",
    "city": "Kagau Island",
    "country": "SB",
    "type": "small_airport",
    "latitude": -7.3305,
    "longitude": 157.585
  },
  {
    "code": "KUE",
    "name": "Kukudu Airport",
    "city": "Kolombangara Island",
    "country": "SB",
    "type": "small_airport",
    "latitude": -8.0262,
    "longitude": 156.94783
  },
  {
    "code": "KWS",
    "name": "Kwailabesi Airport",
    "city": "Kwailabesi",
    "country": "SB",
    "type": "small_airport",
    "latitude": -8.360508,
    "longitude": 160.775127
  },
  {
    "code": "LLM",
    "name": "Lomlom Airport",
    "city": "Lomlom",
    "country": "SB",
    "type": "small_airport",
    "latitude": -10.296828,
    "longitude": 166.327322
  },
  {
    "code": "NAZ",
    "name": "Nana Airport",
    "city": "Star Harbor",
    "country": "SB",
    "type": "small_airport",
    "latitude": -10.6758,
    "longitude": 162.2049
  },
  {
    "code": "MHM",
    "name": "Manaoba Airport",
    "city": "Manaoba",
    "country": "SB",
    "type": "small_airport",
    "latitude": -8.325008,
    "longitude": 160.80051
  },
  {
    "code": "GTA",
    "name": "Gatokae Aerodrome",
    "city": "Gatokae",
    "country": "SB",
    "type": "small_airport",
    "latitude": -8.738358,
    "longitude": 158.202836
  },
  {
    "code": "RIN",
    "name": "Ringi Cove Airport",
    "city": "Ringi Cove",
    "country": "SB",
    "type": "small_airport",
    "latitude": -8.12639045715332,
    "longitude": 157.14300537109375
  },
  {
    "code": "RBV",
    "name": "Ramata Airport",
    "city": "Ramata",
    "country": "SB",
    "type": "small_airport",
    "latitude": -8.168060302734375,
    "longitude": 157.64300537109375
  },
  {
    "code": "AHY",
    "name": "Ambatolhy Airport",
    "city": "Ambatolahy",
    "country": "MG",
    "type": "small_airport",
    "latitude": -20.015833333299998,
    "longitude": 45.535
  },
  {
    "code": "AIC",
    "name": "Ailinglaplap Airok Airport",
    "city": "Bigatyelang Island",
    "country": "MH",
    "type": "small_airport",
    "latitude": 7.279422,
    "longitude": 168.8257
  },
  {
    "code": "CEX",
    "name": "Chena Hot Springs Airport",
    "city": "Chena Hot Springs",
    "country": "US",
    "type": "small_airport",
    "latitude": 65.0518035889,
    "longitude": -146.04699707
  },
  {
    "code": "SOL",
    "name": "Solomon State Field",
    "city": "Solomon",
    "country": "US",
    "type": "small_airport",
    "latitude": 64.5605,
    "longitude": -164.4457
  },
  {
    "code": "HED",
    "name": "Herendeen Bay Airport",
    "city": "Herendeen Bay",
    "country": "US",
    "type": "small_airport",
    "latitude": 55.802346,
    "longitude": -160.901346
  },
  {
    "code": "TWE",
    "name": "Taylor Airport",
    "city": "Taylor",
    "country": "US",
    "type": "small_airport",
    "latitude": 65.6792984009,
    "longitude": -164.798995972
  },
  {
    "code": "CDL",
    "name": "Candle 2 Airport",
    "city": "Candle",
    "country": "US",
    "type": "small_airport",
    "latitude": 65.907699585,
    "longitude": -161.925994873
  },
  {
    "code": "BSW",
    "name": "Boswell Bay Airport",
    "city": "Boswell Bay",
    "country": "US",
    "type": "small_airport",
    "latitude": 60.4230995178,
    "longitude": -146.145996094
  },
  {
    "code": "AKM",
    "name": "Zakuoma Airport",
    "city": "ZaKouma",
    "country": "TD",
    "type": "small_airport",
    "latitude": 10.8902777778,
    "longitude": 19.8172222222
  },
  {
    "code": "YUK",
    "name": "Syunik Airport",
    "city": "Kapan",
    "country": "AM",
    "type": "small_airport",
    "latitude": 39.202272,
    "longitude": 46.455204
  },
  {
    "code": "AME",
    "name": "Alto Molocue Airport",
    "city": "Alto Molocue",
    "country": "MZ",
    "type": "small_airport",
    "latitude": -15.6102777778,
    "longitude": 37.6813888889
  },
  {
    "code": "AMY",
    "name": "Ambatomainty Airport",
    "city": "",
    "country": "MG",
    "type": "small_airport",
    "latitude": -17.686667,
    "longitude": 45.623889
  },
  {
    "code": "INU",
    "name": "Nauru International Airport",
    "city": "Yaren District",
    "country": "NR",
    "type": "medium_airport",
    "latitude": -0.547458,
    "longitude": 166.919006
  },
  {
    "code": "ANZ",
    "name": "Angus Downs Airport",
    "city": "Angus Downs Station",
    "country": "AU",
    "type": "small_airport",
    "latitude": -25.0325,
    "longitude": 132.2748
  },
  {
    "code": "CTV",
    "name": "Catoca Airport",
    "city": "Saurimo",
    "country": "AO",
    "type": "small_airport",
    "latitude": -9.431359,
    "longitude": 20.311557
  },
  {
    "code": "ANL",
    "name": "Andulo Airport",
    "city": "Andulo",
    "country": "AO",
    "type": "small_airport",
    "latitude": -11.4723,
    "longitude": 16.710899
  },
  {
    "code": "CNZ",
    "name": "Cangamba Airport",
    "city": "Cangamba",
    "country": "AO",
    "type": "small_airport",
    "latitude": -13.7106,
    "longitude": 19.861099
  },
  {
    "code": "DRC",
    "name": "Dirico Airport",
    "city": "Dirico",
    "country": "AO",
    "type": "small_airport",
    "latitude": -17.981924,
    "longitude": 20.768061
  },
  {
    "code": "NDF",
    "name": "N'dalatando Airport",
    "city": "N'dalatando",
    "country": "AO",
    "type": "small_airport",
    "latitude": -9.280378,
    "longitude": 14.982432
  },
  {
    "code": "AOB",
    "name": "Annanberg Airport",
    "city": "",
    "country": "PG",
    "type": "small_airport",
    "latitude": -4.90416666667,
    "longitude": 144.635833333
  },
  {
    "code": "AOD",
    "name": "Abou-Deïa Airport",
    "city": "Abou-Deïa",
    "country": "TD",
    "type": "small_airport",
    "latitude": 11.4773,
    "longitude": 19.2874
  },
  {
    "code": "APP",
    "name": "Asapa Airport",
    "city": "",
    "country": "PG",
    "type": "small_airport",
    "latitude": -8.979167,
    "longitude": 148.103611
  },
  {
    "code": "AQY",
    "name": "Girdwood-Alyeska Airport",
    "city": "Girdwood",
    "country": "US",
    "type": "small_airport",
    "latitude": 60.968774,
    "longitude": -149.119792
  },
  {
    "code": "QRF",
    "name": "Bragado Airport",
    "city": "Bragado",
    "country": "AR",
    "type": "small_airport",
    "latitude": -35.145811,
    "longitude": -60.480294
  },
  {
    "code": "CVI",
    "name": "Caleta Olivia Airport",
    "city": "Caleta Olivia",
    "country": "AR",
    "type": "small_airport",
    "latitude": -46.37428,
    "longitude": -67.59409
  },
  {
    "code": "CNT",
    "name": "Charata Airport",
    "city": "Charata",
    "country": "AR",
    "type": "small_airport",
    "latitude": -27.2164,
    "longitude": -61.2103
  },
  {
    "code": "VGS",
    "name": "General Villegas Airport",
    "city": "General Villegas",
    "country": "AR",
    "type": "small_airport",
    "latitude": -34.995728,
    "longitude": -62.999725
  },
  {
    "code": "LMD",
    "name": "Los Menucos Airport",
    "city": "Los Menucos",
    "country": "AR",
    "type": "small_airport",
    "latitude": -40.817699,
    "longitude": -68.074699
  },
  {
    "code": "VCF",
    "name": "Valcheta Airport",
    "city": "Valcheta",
    "country": "AR",
    "type": "small_airport",
    "latitude": -40.700001,
    "longitude": -66.150002
  },
  {
    "code": "CPG",
    "name": "Carmen de Patagones Airport",
    "city": "Carmen de Patagones",
    "country": "AR",
    "type": "small_airport",
    "latitude": -40.7781,
    "longitude": -62.9803
  },
  {
    "code": "ARP",
    "name": "Aragip Airport",
    "city": "",
    "country": "PG",
    "type": "small_airport",
    "latitude": -9.88333333333,
    "longitude": 149.483333333
  },
  {
    "code": "ASZ",
    "name": "Asirim Airport",
    "city": "",
    "country": "PG",
    "type": "small_airport",
    "latitude": -6.009722222220001,
    "longitude": 150.368611111
  },
  {
    "code": "WFR",
    "name": "Wolf's Fang Runway",
    "city": "",
    "country": "AQ",
    "type": "medium_airport",
    "latitude": -71.517,
    "longitude": 8.8
  },
  {
    "code": "LYT",
    "name": "Lady Elliot Island Airstrip",
    "city": "Lady Elliot Island",
    "country": "AU",
    "type": "small_airport",
    "latitude": -24.1129,
    "longitude": 152.7156
  },
  {
    "code": "GYZ",
    "name": "Gruyere Airport",
    "city": "Cosmo Newbery",
    "country": "AU",
    "type": "small_airport",
    "latitude": -28.034548,
    "longitude": 123.81506
  },
  {
    "code": "AGW",
    "name": "Agnew Airport",
    "city": "Agnew",
    "country": "AU",
    "type": "small_airport",
    "latitude": -12.1456,
    "longitude": 142.149369
  },
  {
    "code": "AYD",
    "name": "Alroy Downs Airport",
    "city": "Alroy Downs",
    "country": "AU",
    "type": "small_airport",
    "latitude": -19.2908,
    "longitude": 136.078995
  },
  {
    "code": "BYX",
    "name": "Baniyala Airport",
    "city": "Baniyala",
    "country": "AU",
    "type": "small_airport",
    "latitude": -13.1981,
    "longitude": 136.227005
  },
  {
    "code": "COB",
    "name": "Coolibah Airport",
    "city": "Coolibah",
    "country": "AU",
    "type": "small_airport",
    "latitude": -15.548299789428711,
    "longitude": 130.96200561523438
  },
  {
    "code": "CRJ",
    "name": "Coorabie Airport",
    "city": "Coorabie",
    "country": "AU",
    "type": "small_airport",
    "latitude": -31.894399642944336,
    "longitude": 132.29600524902344
  },
  {
    "code": "CRY",
    "name": "Carlton Hill Airport",
    "city": "Carlton Hill",
    "country": "AU",
    "type": "small_airport",
    "latitude": -15.501899719238281,
    "longitude": 128.53399658203125
  },
  {
    "code": "CSD",
    "name": "Cresswell Downs Airport",
    "city": "Cresswell Downs",
    "country": "AU",
    "type": "small_airport",
    "latitude": -17.947999954223633,
    "longitude": 135.91600036621094
  },
  {
    "code": "DYM",
    "name": "Diamantina Lakes Airport",
    "city": "Diamantina Lakes",
    "country": "AU",
    "type": "small_airport",
    "latitude": -23.761699676513672,
    "longitude": 141.14500427246094
  },
  {
    "code": "HLV",
    "name": "Helenvale Airport",
    "city": "Helenvale",
    "country": "AU",
    "type": "small_airport",
    "latitude": -15.685799598693848,
    "longitude": 145.21499633789062
  },
  {
    "code": "KBD",
    "name": "Kimberley Downs Airport",
    "city": "Kimberley Downs",
    "country": "AU",
    "type": "small_airport",
    "latitude": -17.39780044555664,
    "longitude": 124.3550033569336
  },
  {
    "code": "KGR",
    "name": "Kulgera Airport",
    "city": "Ghan",
    "country": "AU",
    "type": "small_airport",
    "latitude": -25.8428,
    "longitude": 133.292007
  },
  {
    "code": "PEP",
    "name": "Peppimenarti Airport",
    "city": "Peppimenarti",
    "country": "AU",
    "type": "small_airport",
    "latitude": -14.1442,
    "longitude": 130.091003
  },
  {
    "code": "RDA",
    "name": "Rockhampton Downs Airport",
    "city": "Rockhampton Downs",
    "country": "AU",
    "type": "small_airport",
    "latitude": -18.95330047607422,
    "longitude": 135.2010040283203
  },
  {
    "code": "SSK",
    "name": "Sturt Creek Airport",
    "city": "Sturt Creek",
    "country": "AU",
    "type": "small_airport",
    "latitude": -19.166400909423828,
    "longitude": 128.1739959716797
  },
  {
    "code": "SWB",
    "name": "Shaw River Airport",
    "city": "Shaw River",
    "country": "AU",
    "type": "small_airport",
    "latitude": -21.510299682617188,
    "longitude": 119.36199951171875
  },
  {
    "code": "TWP",
    "name": "Torwood Airport",
    "city": "Torwood",
    "country": "AU",
    "type": "small_airport",
    "latitude": -17.363300323486328,
    "longitude": 143.75
  },
  {
    "code": "ZVG",
    "name": "Springvale Airport",
    "city": "Springvale",
    "country": "AU",
    "type": "small_airport",
    "latitude": -17.7869,
    "longitude": 127.669998
  },
  {
    "code": "AWR",
    "name": "Awar Airport (unusable)",
    "city": "Awar",
    "country": "PG",
    "type": "small_airport",
    "latitude": -4.122278,
    "longitude": 144.853292
  },
  {
    "code": "AXF",
    "name": "Alxa Left Banner Bayanhot Airport",
    "city": "Bayanhot",
    "country": "CN",
    "type": "medium_airport",
    "latitude": 38.748317,
    "longitude": 105.58416
  },
  {
    "code": "AXO",
    "name": "Pantar Kabir Airport",
    "city": "Kabir",
    "country": "ID",
    "type": "small_airport",
    "latitude": -8.244832,
    "longitude": 124.219108
  },
  {
    "code": "AMF",
    "name": "Ama Airport",
    "city": "",
    "country": "PG",
    "type": "small_airport",
    "latitude": -4.10111111111,
    "longitude": 141.67
  },
  {
    "code": "UAE",
    "name": "Mount Aue Airport",
    "city": "Aue",
    "country": "PG",
    "type": "small_airport",
    "latitude": -6.229978,
    "longitude": 144.664181
  },
  {
    "code": "AFR",
    "name": "Afore Airstrip",
    "city": "Afore",
    "country": "PG",
    "type": "small_airport",
    "latitude": -9.13867,
    "longitude": 148.390701
  },
  {
    "code": "AUP",
    "name": "Agaun Airport",
    "city": "Agaun",
    "country": "PG",
    "type": "small_airport",
    "latitude": -9.927715,
    "longitude": 149.389951
  },
  {
    "code": "ATP",
    "name": "Aitape Airport",
    "city": "Aitape",
    "country": "PG",
    "type": "small_airport",
    "latitude": -3.143611,
    "longitude": 142.346806
  },
  {
    "code": "AIH",
    "name": "Aiambak Airport",
    "city": "Aiambak",
    "country": "PG",
    "type": "small_airport",
    "latitude": -7.342777777779999,
    "longitude": 141.2675
  },
  {
    "code": "AMU",
    "name": "Amanab Airport",
    "city": "Amanab",
    "country": "PG",
    "type": "small_airport",
    "latitude": -3.586,
    "longitude": 141.214333333
  },
  {
    "code": "ADC",
    "name": "Andakombe Airport",
    "city": "Andekombe",
    "country": "PG",
    "type": "small_airport",
    "latitude": -7.13722222222,
    "longitude": 145.744722222
  },
  {
    "code": "AIE",
    "name": "Aiome Airport",
    "city": "Aiome",
    "country": "PG",
    "type": "small_airport",
    "latitude": -5.145699978,
    "longitude": 144.7307003
  },
  {
    "code": "KPM",
    "name": "Kompiam Airport",
    "city": "",
    "country": "PG",
    "type": "small_airport",
    "latitude": -5.38166666667,
    "longitude": 143.924722222
  },
  {
    "code": "AUJ",
    "name": "Ambunti Airport",
    "city": "Ambunti",
    "country": "PG",
    "type": "small_airport",
    "latitude": -4.21566666667,
    "longitude": 142.823166667
  },
  {
    "code": "AWB",
    "name": "Awaba Airport",
    "city": "Awaba",
    "country": "PG",
    "type": "small_airport",
    "latitude": -8.013414,
    "longitude": 142.752099
  },
  {
    "code": "AEK",
    "name": "Aseki Airport",
    "city": "Aseki",
    "country": "PG",
    "type": "small_airport",
    "latitude": -7.350805,
    "longitude": 146.193994
  },
  {
    "code": "AYU",
    "name": "Aiyura Airport",
    "city": "Aiyura Valley",
    "country": "PG",
    "type": "small_airport",
    "latitude": -6.33805555556,
    "longitude": 145.904166667
  },
  {
    "code": "VMU",
    "name": "Baimuru Airport",
    "city": "Baimuru",
    "country": "PG",
    "type": "medium_airport",
    "latitude": -7.496955,
    "longitude": 144.821756
  },
  {
    "code": "BCP",
    "name": "Bambu Airport",
    "city": "Bambu",
    "country": "PG",
    "type": "small_airport",
    "latitude": -5.863611111110001,
    "longitude": 146.4925
  },
  {
    "code": "BNM",
    "name": "Bodinumu Airport",
    "city": "Bodinumu",
    "country": "PG",
    "type": "small_airport",
    "latitude": -9.107777777779999,
    "longitude": 147.666722222
  },
  {
    "code": "BMZ",
    "name": "Bamu Airport",
    "city": "Bamu",
    "country": "PG",
    "type": "small_airport",
    "latitude": -7.8485,
    "longitude": 143.2433
  },
  {
    "code": "BDZ",
    "name": "Baindoung Airport",
    "city": "",
    "country": "PG",
    "type": "small_airport",
    "latitude": -6.34722222222,
    "longitude": 146.942222222
  },
  {
    "code": "BSP",
    "name": "Bensbach Airport",
    "city": "Bensbach",
    "country": "PG",
    "type": "small_airport",
    "latitude": -8.85805555556,
    "longitude": 141.259444444
  },
  {
    "code": "BWP",
    "name": "Bewani Airport",
    "city": "Bewani",
    "country": "PG",
    "type": "small_airport",
    "latitude": -3.0216666666700003,
    "longitude": 141.165277778
  },
  {
    "code": "BUA",
    "name": "Buka Airport",
    "city": "Buka Island",
    "country": "PG",
    "type": "medium_airport",
    "latitude": -5.422299,
    "longitude": 154.672698
  },
  {
    "code": "BAA",
    "name": "Bialla Airport",
    "city": "Bialla, Matalilu, Ewase",
    "country": "PG",
    "type": "small_airport",
    "latitude": -5.3305602073700005,
    "longitude": 151.007995605
  },
  {
    "code": "OPU",
    "name": "Balimo Airport",
    "city": "Balimo",
    "country": "PG",
    "type": "medium_airport",
    "latitude": -8.05000019073,
    "longitude": 142.932998657
  },
  {
    "code": "BMH",
    "name": "Bomai Airport",
    "city": "Bomai",
    "country": "PG",
    "type": "small_airport",
    "latitude": -6.37316666667,
    "longitude": 144.637
  },
  {
    "code": "BPD",
    "name": "Bapi Airstrip",
    "city": "Bapi",
    "country": "PG",
    "type": "small_airport",
    "latitude": -7.743611111110001,
    "longitude": 147.020555556
  },
  {
    "code": "BPK",
    "name": "Biangabip Airport",
    "city": "Biangabip",
    "country": "PG",
    "type": "small_airport",
    "latitude": -5.526389,
    "longitude": 141.744583
  },
  {
    "code": "BRP",
    "name": "Biaru Airport",
    "city": "Biaru",
    "country": "PG",
    "type": "small_airport",
    "latitude": -7.6693,
    "longitude": 146.7594
  },
  {
    "code": "BUL",
    "name": "Bulolo Airport",
    "city": "Bulolo",
    "country": "PG",
    "type": "small_airport",
    "latitude": -7.216286671410001,
    "longitude": 146.649541855
  },
  {
    "code": "XBN",
    "name": "Biniguni Airport",
    "city": "Biniguni",
    "country": "PG",
    "type": "small_airport",
    "latitude": -9.6425,
    "longitude": 149.303889
  },
  {
    "code": "CVB",
    "name": "Chungribu Airport",
    "city": "Chungribu",
    "country": "PG",
    "type": "small_airport",
    "latitude": -4.80662,
    "longitude": 144.714996
  },
  {
    "code": "CGC",
    "name": "Cape Gloucester Airport",
    "city": "Cape Gloucester",
    "country": "PG",
    "type": "small_airport",
    "latitude": -5.455231,
    "longitude": 148.422289
  },
  {
    "code": "CMU",
    "name": "Chimbu Airport",
    "city": "Kundiawa",
    "country": "PG",
    "type": "medium_airport",
    "latitude": -6.024290084838867,
    "longitude": 144.9709930419922
  },
  {
    "code": "SQT",
    "name": "China Strait Airstrip",
    "city": "Samarai Island",
    "country": "PG",
    "type": "small_airport",
    "latitude": -10.5627777778,
    "longitude": 150.690694444
  },
  {
    "code": "DBP",
    "name": "Debepare Airport",
    "city": "Debepare",
    "country": "PG",
    "type": "small_airport",
    "latitude": -6.30861111111,
    "longitude": 141.905555556
  },
  {
    "code": "DER",
    "name": "Derim Airport",
    "city": "Derim",
    "country": "PG",
    "type": "small_airport",
    "latitude": -6.14472222222,
    "longitude": 147.107222222
  },
  {
    "code": "BNT",
    "name": "Bundi Airport",
    "city": "Bundi",
    "country": "PG",
    "type": "small_airport",
    "latitude": -5.742222222220001,
    "longitude": 145.2275
  },
  {
    "code": "MDM",
    "name": "Munduku Airport",
    "city": "Munduku",
    "country": "PG",
    "type": "small_airport",
    "latitude": -4.6204,
    "longitude": 143.4516
  },
  {
    "code": "KPF",
    "name": "Kondobol Airport",
    "city": "Kondobol",
    "country": "PG",
    "type": "small_airport",
    "latitude": -8.5336,
    "longitude": 142.5049
  },
  {
    "code": "DNU",
    "name": "Dinangat Airport",
    "city": "Dinangat",
    "country": "PG",
    "type": "small_airport",
    "latitude": -6.1546,
    "longitude": 146.6772
  },
  {
    "code": "DOI",
    "name": "Doini Airport",
    "city": "Castori Islets",
    "country": "PG",
    "type": "small_airport",
    "latitude": -10.7009,
    "longitude": 150.7218
  },
  {
    "code": "DOO",
    "name": "Dorobisoro Airport",
    "city": "Dorobisoro",
    "country": "PG",
    "type": "small_airport",
    "latitude": -9.461855,
    "longitude": 147.920907
  },
  {
    "code": "DAU",
    "name": "Daru Airport",
    "city": "Daru",
    "country": "PG",
    "type": "medium_airport",
    "latitude": -9.08676,
    "longitude": 143.207993
  },
  {
    "code": "KRU",
    "name": "Kerau Airport",
    "city": "Gunim",
    "country": "PG",
    "type": "small_airport",
    "latitude": -8.271612,
    "longitude": 147.071899
  },
  {
    "code": "EMS",
    "name": "Embessa Airport",
    "city": "Embessa",
    "country": "PG",
    "type": "small_airport",
    "latitude": -9.447,
    "longitude": 148.7628
  },
  {
    "code": "XYR",
    "name": "Edwaki Airport",
    "city": "Yellow River Mission",
    "country": "PG",
    "type": "small_airport",
    "latitude": -3.883986,
    "longitude": 141.792234
  },
  {
    "code": "EMI",
    "name": "Emirau Airport",
    "city": "Emirau Island",
    "country": "PG",
    "type": "small_airport",
    "latitude": -1.653949991,
    "longitude": 149.9757667
  },
  {
    "code": "EFG",
    "name": "Efogi Airport",
    "city": "Efogi",
    "country": "PG",
    "type": "small_airport",
    "latitude": -9.15380555556,
    "longitude": 147.659805556
  },
  {
    "code": "MHY",
    "name": "Morehead Airport",
    "city": "Morehead",
    "country": "PG",
    "type": "small_airport",
    "latitude": -8.71411111111,
    "longitude": 141.644444444
  },
  {
    "code": "EPT",
    "name": "Eliptamin Airport",
    "city": "Eliptamin",
    "country": "PG",
    "type": "small_airport",
    "latitude": -5.0412,
    "longitude": 141.6779
  },
  {
    "code": "EGA",
    "name": "Engati Airstrip",
    "city": "Engati",
    "country": "PG",
    "type": "small_airport",
    "latitude": -6.9179,
    "longitude": 146.1053
  },
  {
    "code": "EMO",
    "name": "Emo River Airstrip",
    "city": "Emo Mission",
    "country": "PG",
    "type": "small_airport",
    "latitude": -9.1234,
    "longitude": 148.0415
  },
  {
    "code": "ERU",
    "name": "Erume Airport",
    "city": "Erume",
    "country": "PG",
    "type": "small_airport",
    "latitude": -8.2538,
    "longitude": 146.9747
  },
  {
    "code": "MFZ",
    "name": "Meselia Airport",
    "city": "Demgulu",
    "country": "PG",
    "type": "small_airport",
    "latitude": -6.1364,
    "longitude": 149.1183
  },
  {
    "code": "BOT",
    "name": "Bosset Airport",
    "city": "Bosset",
    "country": "PG",
    "type": "small_airport",
    "latitude": -7.237257,
    "longitude": 141.1063222
  },
  {
    "code": "ERE",
    "name": "Erave Airport",
    "city": "Erave",
    "country": "PG",
    "type": "small_airport",
    "latitude": -6.60646315446,
    "longitude": 143.900213242
  },
  {
    "code": "SWE",
    "name": "Siwea Airport",
    "city": "Siwea",
    "country": "PG",
    "type": "small_airport",
    "latitude": -6.284181,
    "longitude": 147.582371
  },
  {
    "code": "FNE",
    "name": "Fane Airport",
    "city": "Fane Mission",
    "country": "PG",
    "type": "small_airport",
    "latitude": -8.54927777778,
    "longitude": 147.085833333
  },
  {
    "code": "FRQ",
    "name": "Feramin Airport",
    "city": "Feramin",
    "country": "PG",
    "type": "small_airport",
    "latitude": -5.208,
    "longitude": 141.6988
  },
  {
    "code": "FIN",
    "name": "Finschhafen Airport",
    "city": "Buki",
    "country": "PG",
    "type": "small_airport",
    "latitude": -6.621750109,
    "longitude": 147.85405
  },
  {
    "code": "FAQ",
    "name": "Frieda River Airport",
    "city": "Frieda River",
    "country": "PG",
    "type": "small_airport",
    "latitude": -4.610468,
    "longitude": 141.960138
  },
  {
    "code": "FUM",
    "name": "Fuma Airport",
    "city": "Fuma",
    "country": "PG",
    "type": "small_airport",
    "latitude": -6.3933,
    "longitude": 142.4408
  },
  {
    "code": "GKA",
    "name": "Goroka Airport",
    "city": "Goronka",
    "country": "PG",
    "type": "medium_airport",
    "latitude": -6.081689834590001,
    "longitude": 145.391998291
  },
  {
    "code": "GEW",
    "name": "Gewoia Airport",
    "city": "Gewoia",
    "country": "PG",
    "type": "small_airport",
    "latitude": -9.2263,
    "longitude": 148.4949
  },
  {
    "code": "GUG",
    "name": "Guari Airport",
    "city": "Guari",
    "country": "PG",
    "type": "small_airport",
    "latitude": -8.1286,
    "longitude": 146.8722
  },
  {
    "code": "GRL",
    "name": "Garasa Airport",
    "city": "Au",
    "country": "PG",
    "type": "small_airport",
    "latitude": -7.980713,
    "longitude": 147.213461
  },
  {
    "code": "GAR",
    "name": "Garaina Airport",
    "city": "Garaina",
    "country": "PG",
    "type": "small_airport",
    "latitude": -7.875625,
    "longitude": 147.141266
  },
  {
    "code": "GAZ",
    "name": "Guasopa Airport",
    "city": "Woodlark (Muyua) Island",
    "country": "PG",
    "type": "small_airport",
    "latitude": -9.225918,
    "longitude": 152.944352
  },
  {
    "code": "GOE",
    "name": "Gonaili Airport",
    "city": "Gonaili",
    "country": "PG",
    "type": "small_airport",
    "latitude": -5.527716614,
    "longitude": 151.5733333
  },
  {
    "code": "GUR",
    "name": "Gurney Airport",
    "city": "Gurney",
    "country": "PG",
    "type": "medium_airport",
    "latitude": -10.3114995956,
    "longitude": 150.333999634
  },
  {
    "code": "GAP",
    "name": "Gusap Airport",
    "city": "Gusap",
    "country": "PG",
    "type": "small_airport",
    "latitude": -6.053196,
    "longitude": 145.959047
  },
  {
    "code": "PNP",
    "name": "Girua Airport",
    "city": "Popondetta",
    "country": "PG",
    "type": "medium_airport",
    "latitude": -8.80453968048,
    "longitude": 148.309005737
  },
  {
    "code": "GBC",
    "name": "Gasuke Airport",
    "city": "Gasuke",
    "country": "PG",
    "type": "small_airport",
    "latitude": -6.1028,
    "longitude": 141.7393
  },
  {
    "code": "GMI",
    "name": "Gasmata Island Airport",
    "city": "Gasmata Island",
    "country": "PG",
    "type": "small_airport",
    "latitude": -6.27111005783,
    "longitude": 150.330993652
  },
  {
    "code": "AKG",
    "name": "Anguganak Airport",
    "city": "Anguganak",
    "country": "PG",
    "type": "small_airport",
    "latitude": -3.560504,
    "longitude": 142.217307
  },
  {
    "code": "GVI",
    "name": "Green River Airport",
    "city": "Green River",
    "country": "PG",
    "type": "small_airport",
    "latitude": -3.9022428989400004,
    "longitude": 141.170516968
  },
  {
    "code": "GOC",
    "name": "Gora Airstrip",
    "city": "Gora",
    "country": "PG",
    "type": "small_airport",
    "latitude": -9.0021,
    "longitude": 148.2364
  },
  {
    "code": "HBD",
    "name": "Habi Airport",
    "city": "Habi",
    "country": "PG",
    "type": "small_airport",
    "latitude": -6.32,
    "longitude": 142.4893
  },
  {
    "code": "HNI",
    "name": "Heiweni Airport",
    "city": "Heiweni",
    "country": "PG",
    "type": "small_airport",
    "latitude": -7.4223,
    "longitude": 146.4276
  },
  {
    "code": "HYF",
    "name": "Hayfields Airport",
    "city": "Bainyik",
    "country": "PG",
    "type": "small_airport",
    "latitude": -3.69838,
    "longitude": 143.057902
  },
  {
    "code": "HNN",
    "name": "Honinabi Airport",
    "city": "Honinabi",
    "country": "PG",
    "type": "small_airport",
    "latitude": -6.2457,
    "longitude": 142.1771
  },
  {
    "code": "HKN",
    "name": "Hoskins Airport",
    "city": "Kimbe",
    "country": "PG",
    "type": "medium_airport",
    "latitude": -5.463846,
    "longitude": 150.407327
  },
  {
    "code": "HIT",
    "name": "Haivaro Airport",
    "city": "Haivaro",
    "country": "PG",
    "type": "small_airport",
    "latitude": -6.9406,
    "longitude": 143.059
  },
  {
    "code": "HWA",
    "name": "Hawabango Airport",
    "city": "Hawabango",
    "country": "PG",
    "type": "small_airport",
    "latitude": -7.392994,
    "longitude": 146.003487
  },
  {
    "code": "IIS",
    "name": "Nissan Island Airport",
    "city": "Nissan Island",
    "country": "PG",
    "type": "small_airport",
    "latitude": -4.49972009659,
    "longitude": 154.225997925
  },
  {
    "code": "IDN",
    "name": "Indagen Airport",
    "city": "Indagen",
    "country": "PG",
    "type": "small_airport",
    "latitude": -6.22663,
    "longitude": 147.244
  },
  {
    "code": "IMN",
    "name": "Imane Airport",
    "city": "Imane",
    "country": "PG",
    "type": "small_airport",
    "latitude": -6.7524,
    "longitude": 146.1072
  },
  {
    "code": "KGM",
    "name": "Kungim Airport",
    "city": "Kungim",
    "country": "PG",
    "type": "small_airport",
    "latitude": -5.671,
    "longitude": 141.03
  },
  {
    "code": "IMD",
    "name": "Imonda Airport",
    "city": "Imonda",
    "country": "PG",
    "type": "small_airport",
    "latitude": -3.328,
    "longitude": 141.1573
  },
  {
    "code": "KIE",
    "name": "Aropa Airport",
    "city": "Kieta",
    "country": "PG",
    "type": "small_airport",
    "latitude": -6.305417,
    "longitude": 155.728139
  },
  {
    "code": "IAL",
    "name": "Ialibu Airport",
    "city": "Ialibu",
    "country": "PG",
    "type": "small_airport",
    "latitude": -6.2782,
    "longitude": 143.9944
  },
  {
    "code": "WSA",
    "name": "Wasua Airport",
    "city": "Wasua",
    "country": "PG",
    "type": "small_airport",
    "latitude": -8.2836,
    "longitude": 142.8697
  },
  {
    "code": "WIU",
    "name": "Witu Airport",
    "city": "Garove Island",
    "country": "PG",
    "type": "small_airport",
    "latitude": -4.689522,
    "longitude": 149.440112
  },
  {
    "code": "MPX",
    "name": "Miyanmin Airport",
    "city": "Miyanmin",
    "country": "PG",
    "type": "small_airport",
    "latitude": -4.903055555560001,
    "longitude": 141.620833333
  },
  {
    "code": "KGH",
    "name": "Yongai Airport",
    "city": "Yongai",
    "country": "PG",
    "type": "small_airport",
    "latitude": -8.5289,
    "longitude": 147.4603
  },
  {
    "code": "JOP",
    "name": "Josephstaal Airport",
    "city": "Josephstaal",
    "country": "PG",
    "type": "small_airport",
    "latitude": -4.74708333333,
    "longitude": 145.007083333
  },
  {
    "code": "LSA",
    "name": "Losuia Airport",
    "city": "Losuia",
    "country": "PG",
    "type": "small_airport",
    "latitude": -8.505820274353027,
    "longitude": 151.08099365234375
  },
  {
    "code": "KBM",
    "name": "Kabwum",
    "city": "",
    "country": "PG",
    "type": "small_airport",
    "latitude": -6.15547222222,
    "longitude": 147.191472222
  },
  {
    "code": "KDR",
    "name": "Kandrian Airport",
    "city": "Kandrian",
    "country": "PG",
    "type": "small_airport",
    "latitude": -6.19217,
    "longitude": 149.54783
  },
  {
    "code": "KMF",
    "name": "Kamina Airport",
    "city": "Hoieti",
    "country": "PG",
    "type": "small_airport",
    "latitude": -7.64925,
    "longitude": 145.956944444
  },
  {
    "code": "KPA",
    "name": "Kopiago Airport",
    "city": "Kopiago",
    "country": "PG",
    "type": "small_airport",
    "latitude": -5.3883,
    "longitude": 142.4977
  },
  {
    "code": "KAQ",
    "name": "Kamulai Airport",
    "city": "Kamulai Mission",
    "country": "PG",
    "type": "small_airport",
    "latitude": -8.150694444440001,
    "longitude": 146.834
  },
  {
    "code": "UNG",
    "name": "Kiunga Airport",
    "city": "Kiunga",
    "country": "PG",
    "type": "small_airport",
    "latitude": -6.1257100105285645,
    "longitude": 141.28199768066406
  },
  {
    "code": "KNE",
    "name": "Kanainj Airport",
    "city": "Kanainj",
    "country": "PG",
    "type": "small_airport",
    "latitude": -5.2903,
    "longitude": 144.7072
  },
  {
    "code": "KRI",
    "name": "Kikori Airport",
    "city": "Kikori",
    "country": "PG",
    "type": "small_airport",
    "latitude": -7.42438,
    "longitude": 144.250076
  },
  {
    "code": "KMA",
    "name": "Kerema Airport",
    "city": "Kerema",
    "country": "PG",
    "type": "medium_airport",
    "latitude": -7.96361017227,
    "longitude": 145.770996094
  },
  {
    "code": "KKD",
    "name": "Kokoda Airport",
    "city": "Kokoda",
    "country": "PG",
    "type": "small_airport",
    "latitude": -8.884679,
    "longitude": 147.730957
  },
  {
    "code": "KGW",
    "name": "Kagi Airport",
    "city": "Kagi",
    "country": "PG",
    "type": "small_airport",
    "latitude": -9.135916666670001,
    "longitude": 147.669444444
  },
  {
    "code": "KRX",
    "name": "Kar Kar Airport",
    "city": "Kar Kar Island",
    "country": "PG",
    "type": "small_airport",
    "latitude": -4.557,
    "longitude": 145.9404
  },
  {
    "code": "KZF",
    "name": "Kaintiba Airport",
    "city": "Kaintiba",
    "country": "PG",
    "type": "small_airport",
    "latitude": -7.50025,
    "longitude": 146.033833333
  },
  {
    "code": "KUQ",
    "name": "Kuri Airport",
    "city": "Kuri",
    "country": "PG",
    "type": "small_airport",
    "latitude": -7.135083,
    "longitude": 143.276111
  },
  {
    "code": "KVG",
    "name": "Kavieng Airport",
    "city": "Kavieng",
    "country": "PG",
    "type": "medium_airport",
    "latitude": -2.57940006256,
    "longitude": 150.807998657
  },
  {
    "code": "KWO",
    "name": "Kawito Airport",
    "city": "Kawito",
    "country": "PG",
    "type": "small_airport",
    "latitude": -7.977006912229999,
    "longitude": 142.823577881
  },
  {
    "code": "LNV",
    "name": "Londolovit Airport",
    "city": "Londolovit",
    "country": "PG",
    "type": "small_airport",
    "latitude": -3.04361009598,
    "longitude": 152.628997803
  },
  {
    "code": "LAB",
    "name": "Lab Lab Airport",
    "city": "Lab Lab Mission",
    "country": "PG",
    "type": "small_airport",
    "latitude": -5.7204,
    "longitude": 148.0566
  },
  {
    "code": "KEG",
    "name": "Keglsugl Airport",
    "city": "Denglagu Mission",
    "country": "PG",
    "type": "small_airport",
    "latitude": -5.83277777778,
    "longitude": 145.097222222
  },
  {
    "code": "KII",
    "name": "Kibuli Airstrip",
    "city": "Kibuli",
    "country": "PG",
    "type": "small_airport",
    "latitude": -9.006528,
    "longitude": 142.698056
  },
  {
    "code": "LGN",
    "name": "Linga Linga Airport",
    "city": "Linga Linga",
    "country": "PG",
    "type": "small_airport",
    "latitude": -5.5319444444400006,
    "longitude": 149.734166667
  },
  {
    "code": "LNM",
    "name": "Langimar Airport",
    "city": "",
    "country": "PG",
    "type": "small_airport",
    "latitude": -7.22313888889,
    "longitude": 146.227083333
  },
  {
    "code": "LWI",
    "name": "Lowai Airport",
    "city": "Lowai",
    "country": "PG",
    "type": "small_airport",
    "latitude": -6.3344,
    "longitude": 146.6458
  },
  {
    "code": "LPN",
    "name": "Leron Plains Airport",
    "city": "Leron Plains",
    "country": "PG",
    "type": "small_airport",
    "latitude": -6.3917,
    "longitude": 146.3434
  },
  {
    "code": "LNG",
    "name": "Lese Airport",
    "city": "Lese",
    "country": "PG",
    "type": "small_airport",
    "latitude": -8.2799,
    "longitude": 146.2765
  },
  {
    "code": "LNC",
    "name": "Lengbati Airport",
    "city": "",
    "country": "PG",
    "type": "small_airport",
    "latitude": -6.384611111110001,
    "longitude": 147.368638889
  },
  {
    "code": "LMI",
    "name": "Lumi Airport",
    "city": "Lumi",
    "country": "PG",
    "type": "small_airport",
    "latitude": -3.47683951134,
    "longitude": 142.041292191
  },
  {
    "code": "LSJ",
    "name": "Long Island Airport",
    "city": "Long Island",
    "country": "PG",
    "type": "small_airport",
    "latitude": -5.3604,
    "longitude": 147.0177
  },
  {
    "code": "MRM",
    "name": "Manari Airport",
    "city": "Manari",
    "country": "PG",
    "type": "small_airport",
    "latitude": -9.1908,
    "longitude": 147.6219
  },
  {
    "code": "OBM",
    "name": "Morobe Airport",
    "city": "Morobe",
    "country": "PG",
    "type": "small_airport",
    "latitude": -7.74,
    "longitude": 147.59
  },
  {
    "code": "MYX",
    "name": "Menyamya Airport",
    "city": "Menyamya",
    "country": "PG",
    "type": "small_airport",
    "latitude": -7.21166666667,
    "longitude": 146.019361111
  },
  {
    "code": "MAG",
    "name": "Madang Airport",
    "city": "Madang",
    "country": "PG",
    "type": "medium_airport",
    "latitude": -5.20707988739,
    "longitude": 145.789001465
  },
  {
    "code": "HGU",
    "name": "Mount Hagen Kagamuga Airport",
    "city": "Mount Hagen",
    "country": "PG",
    "type": "medium_airport",
    "latitude": -5.828212,
    "longitude": 144.299412
  },
  {
    "code": "MXK",
    "name": "Mindik Airport",
    "city": "Mindik",
    "country": "PG",
    "type": "small_airport",
    "latitude": -6.47166666667,
    "longitude": 147.441138889
  },
  {
    "code": "MPG",
    "name": "Makini Airport",
    "city": "Makini",
    "country": "PG",
    "type": "small_airport",
    "latitude": -6.532222222220001,
    "longitude": 147.651166667
  },
  {
    "code": "GUV",
    "name": "Mougulu Airport",
    "city": "Mougulu",
    "country": "PG",
    "type": "small_airport",
    "latitude": -6.280859,
    "longitude": 142.420775
  },
  {
    "code": "MDU",
    "name": "Mendi Airport",
    "city": "Mendi",
    "country": "PG",
    "type": "medium_airport",
    "latitude": -6.14774,
    "longitude": 143.656998
  },
  {
    "code": "MAS",
    "name": "Momote Airport",
    "city": "Manus Island",
    "country": "PG",
    "type": "medium_airport",
    "latitude": -2.06189,
    "longitude": 147.423996
  },
  {
    "code": "MLQ",
    "name": "Malalaua Airport",
    "city": "Malalaua",
    "country": "PG",
    "type": "small_airport",
    "latitude": -8.07138888889,
    "longitude": 146.155472222
  },
  {
    "code": "MQO",
    "name": "Malam Airport",
    "city": "Malam",
    "country": "PG",
    "type": "small_airport",
    "latitude": -8.70916666667,
    "longitude": 142.649722222
  },
  {
    "code": "MXH",
    "name": "Moro Airport",
    "city": "Moro",
    "country": "PG",
    "type": "small_airport",
    "latitude": -6.36332988739,
    "longitude": 143.238006592
  },
  {
    "code": "MIS",
    "name": "Misima Island Airport",
    "city": "Misima Island",
    "country": "PG",
    "type": "small_airport",
    "latitude": -10.689200401299999,
    "longitude": 152.837997437
  },
  {
    "code": "MKN",
    "name": "Malekolon Airport",
    "city": "Babase Island",
    "country": "PG",
    "type": "small_airport",
    "latitude": -4.02343055556,
    "longitude": 153.657277778
  },
  {
    "code": "MWG",
    "name": "Marawaka Airport",
    "city": "Marawaka",
    "country": "PG",
    "type": "small_airport",
    "latitude": -6.9736,
    "longitude": 145.8849
  },
  {
    "code": "MPU",
    "name": "Mapua(Mabua) Airport",
    "city": "Tatau Island",
    "country": "PG",
    "type": "small_airport",
    "latitude": -2.81138888889,
    "longitude": 151.991111111
  },
  {
    "code": "NKN",
    "name": "Nankina Airport",
    "city": "Gwarawon",
    "country": "PG",
    "type": "small_airport",
    "latitude": -5.837,
    "longitude": 146.4533
  },
  {
    "code": "KEX",
    "name": "Kanabea Airport",
    "city": "Kanabea",
    "country": "PG",
    "type": "small_airport",
    "latitude": -7.538888888890001,
    "longitude": 145.905
  },
  {
    "code": "NDN",
    "name": "Nadunumu Airport",
    "city": "Nadunumu",
    "country": "PG",
    "type": "small_airport",
    "latitude": -9.14355555556,
    "longitude": 147.68425
  },
  {
    "code": "AUI",
    "name": "Aua Island Airport",
    "city": "Aua Island",
    "country": "PG",
    "type": "small_airport",
    "latitude": -1.46055555556,
    "longitude": 143.064722222
  },
  {
    "code": "GBF",
    "name": "Negarbo(Negabo) Airport",
    "city": "Negarbo",
    "country": "PG",
    "type": "small_airport",
    "latitude": -6.567778,
    "longitude": 144.703058
  },
  {
    "code": "MFO",
    "name": "Manguna Airport",
    "city": "Manguna",
    "country": "PG",
    "type": "small_airport",
    "latitude": -5.577778,
    "longitude": 151.792333
  },
  {
    "code": "NUG",
    "name": "Nuguria Airstrip",
    "city": "Nuguria Island",
    "country": "PG",
    "type": "small_airport",
    "latitude": -3.4075,
    "longitude": 154.7383
  },
  {
    "code": "NDI",
    "name": "Namudi Airport",
    "city": "Namudi",
    "country": "PG",
    "type": "small_airport",
    "latitude": -9.47375,
    "longitude": 148.329416667
  },
  {
    "code": "KSB",
    "name": "Kasonombe Airport",
    "city": "Kasonombe",
    "country": "PG",
    "type": "small_airport",
    "latitude": -6.3819,
    "longitude": 146.9859
  },
  {
    "code": "KDP",
    "name": "Kandep Airport",
    "city": "Kandep",
    "country": "PG",
    "type": "small_airport",
    "latitude": -5.84061111111,
    "longitude": 143.507222222
  },
  {
    "code": "NMN",
    "name": "Nomane Airport",
    "city": "Namane",
    "country": "PG",
    "type": "small_airport",
    "latitude": -6.32183,
    "longitude": 145.070667
  },
  {
    "code": "BXZ",
    "name": "Bunsil Airport",
    "city": "Bunsil - Umboi Island",
    "country": "PG",
    "type": "small_airport",
    "latitude": -5.7243,
    "longitude": 147.8667
  },
  {
    "code": "UKU",
    "name": "Nuku Airport",
    "city": "Nuku",
    "country": "PG",
    "type": "small_airport",
    "latitude": -3.676651,
    "longitude": 142.484334
  },
  {
    "code": "ATN",
    "name": "Namatanai Airport",
    "city": "Namatanai",
    "country": "PG",
    "type": "small_airport",
    "latitude": -3.6695,
    "longitude": 152.438
  },
  {
    "code": "NBA",
    "name": "Nambaiyufa Airport",
    "city": "Nambaiyufa",
    "country": "PG",
    "type": "small_airport",
    "latitude": -6.2412,
    "longitude": 145.2424
  },
  {
    "code": "LAE",
    "name": "Nadzab Airport",
    "city": "Lae",
    "country": "PG",
    "type": "medium_airport",
    "latitude": -6.569803,
    "longitude": 146.725977
  },
  {
    "code": "OBX",
    "name": "Obo Airport",
    "city": "Obo",
    "country": "PG",
    "type": "small_airport",
    "latitude": -7.590622421369999,
    "longitude": 141.324262619
  },
  {
    "code": "KGB",
    "name": "Konge Airport",
    "city": "Konge",
    "country": "PG",
    "type": "small_airport",
    "latitude": -6.2239,
    "longitude": 147.2152
  },
  {
    "code": "OKV",
    "name": "Okao Airport",
    "city": "Okao",
    "country": "PG",
    "type": "small_airport",
    "latitude": -5.55666666667,
    "longitude": 141.032777778
  },
  {
    "code": "OGE",
    "name": "Ogeranang Airport",
    "city": "",
    "country": "PG",
    "type": "small_airport",
    "latitude": -6.46675,
    "longitude": 147.364166667
  },
  {
    "code": "OKP",
    "name": "Oksapmin Airport",
    "city": "Oksapmin",
    "country": "PG",
    "type": "small_airport",
    "latitude": -5.2261,
    "longitude": 142.2259
  },
  {
    "code": "HOC",
    "name": "Komako Airport",
    "city": "Komako",
    "country": "PG",
    "type": "small_airport",
    "latitude": -7.3984,
    "longitude": 145.8827
  },
  {
    "code": "KQL",
    "name": "Kol Airport",
    "city": "Kol",
    "country": "PG",
    "type": "small_airport",
    "latitude": -5.73116666667,
    "longitude": 144.846
  },
  {
    "code": "OSE",
    "name": "Omora Airport",
    "city": "Omora",
    "country": "PG",
    "type": "small_airport",
    "latitude": -7.82777777778,
    "longitude": 147.080638889
  },
  {
    "code": "KOM",
    "name": "Komo-Manda Airport",
    "city": "Komo",
    "country": "PG",
    "type": "small_airport",
    "latitude": -6.0682,
    "longitude": 142.8598
  },
  {
    "code": "KSP",
    "name": "Kosipe Airport",
    "city": "Kosipe Mission",
    "country": "PG",
    "type": "small_airport",
    "latitude": -8.450716,
    "longitude": 147.209195
  },
  {
    "code": "KCJ",
    "name": "Komaio Airport",
    "city": "Komaio",
    "country": "PG",
    "type": "small_airport",
    "latitude": -7.2714,
    "longitude": 143.5952
  },
  {
    "code": "OLQ",
    "name": "Olsobip Airport",
    "city": "Olsobip",
    "country": "PG",
    "type": "small_airport",
    "latitude": -5.3897222222200005,
    "longitude": 141.515277778
  },
  {
    "code": "KDE",
    "name": "Koroba Airport",
    "city": "Koroba",
    "country": "PG",
    "type": "small_airport",
    "latitude": -5.6952,
    "longitude": 142.7441
  },
  {
    "code": "OPB",
    "name": "Open Bay Airport",
    "city": "Maitanakunai",
    "country": "PG",
    "type": "small_airport",
    "latitude": -4.794727,
    "longitude": 151.696195
  },
  {
    "code": "PLE",
    "name": "Paiela Airport",
    "city": "Paiela",
    "country": "PG",
    "type": "small_airport",
    "latitude": -5.372407,
    "longitude": 142.975774
  },
  {
    "code": "PGB",
    "name": "Pangoa Airport",
    "city": "Pangoa",
    "country": "PG",
    "type": "small_airport",
    "latitude": -7.0226,
    "longitude": 141.5605
  },
  {
    "code": "PDI",
    "name": "Pindiu Airport",
    "city": "Pindiu",
    "country": "PG",
    "type": "small_airport",
    "latitude": -6.445138888890001,
    "longitude": 147.515833333
  },
  {
    "code": "APR",
    "name": "April River Airport",
    "city": "April River",
    "country": "PG",
    "type": "small_airport",
    "latitude": -4.67666666667,
    "longitude": 142.540138889
  },
  {
    "code": "PGN",
    "name": "Pangia Airport",
    "city": "Pangia",
    "country": "PG",
    "type": "small_airport",
    "latitude": -6.386,
    "longitude": 144.1084
  },
  {
    "code": "PMP",
    "name": "Pimaga Airport",
    "city": "Pimaga",
    "country": "PG",
    "type": "small_airport",
    "latitude": -6.49916666667,
    "longitude": 143.510277778
  },
  {
    "code": "MPF",
    "name": "Mapoda Airport",
    "city": "Mapoda",
    "country": "PG",
    "type": "small_airport",
    "latitude": -7.979,
    "longitude": 143.1694
  },
  {
    "code": "PMN",
    "name": "Pumani Airport",
    "city": "Pumani",
    "country": "PG",
    "type": "small_airport",
    "latitude": -9.7469,
    "longitude": 149.4766
  },
  {
    "code": "WLU",
    "name": "Walluanda Airport",
    "city": "Puri",
    "country": "PG",
    "type": "small_airport",
    "latitude": -6.475161,
    "longitude": 143.987222
  },
  {
    "code": "POM",
    "name": "Port Moresby Jacksons International Airport",
    "city": "Port Moresby",
    "country": "PG",
    "type": "large_airport",
    "latitude": -9.443380355834961,
    "longitude": 147.22000122070312
  },
  {
    "code": "KRJ",
    "name": "Karawari Airstrip",
    "city": "Amboin",
    "country": "PG",
    "type": "small_airport",
    "latitude": -4.59666666667,
    "longitude": 143.5225
  },
  {
    "code": "TLP",
    "name": "Tumolbil Airport",
    "city": "Tumolbil",
    "country": "PG",
    "type": "small_airport",
    "latitude": -4.7748,
    "longitude": 141.0133
  },
  {
    "code": "SPH",
    "name": "Sopu Airport",
    "city": "Sopu",
    "country": "PG",
    "type": "small_airport",
    "latitude": -8.3038,
    "longitude": 147.1659
  },
  {
    "code": "ONB",
    "name": "Ononge Airport",
    "city": "Onange Mission",
    "country": "PG",
    "type": "small_airport",
    "latitude": -8.67436111111,
    "longitude": 147.262416667
  },
  {
    "code": "SXA",
    "name": "Sialum Airport",
    "city": "Sialum",
    "country": "PG",
    "type": "small_airport",
    "latitude": -6.0908,
    "longitude": 147.5955
  },
  {
    "code": "KIQ",
    "name": "Kira Airport",
    "city": "Kira",
    "country": "PG",
    "type": "small_airport",
    "latitude": -8.065111111110001,
    "longitude": 147.332027778
  },
  {
    "code": "RBP",
    "name": "Raba Raba Airport",
    "city": "Rabaraba",
    "country": "PG",
    "type": "small_airport",
    "latitude": -9.97111111111,
    "longitude": 149.832222222
  },
  {
    "code": "RMN",
    "name": "Rumginae Airport",
    "city": "",
    "country": "PG",
    "type": "small_airport",
    "latitude": -5.89722222222,
    "longitude": 141.271666667
  },
  {
    "code": "KMR",
    "name": "Karimui Airport",
    "city": "Karimui",
    "country": "PG",
    "type": "small_airport",
    "latitude": -6.4921,
    "longitude": 144.823
  },
  {
    "code": "RKU",
    "name": "Kairuku Airport",
    "city": "Yule Island",
    "country": "PG",
    "type": "small_airport",
    "latitude": -8.817000054,
    "longitude": 146.5243833
  },
  {
    "code": "MWI",
    "name": "Maramuni Airport",
    "city": "Maramuni",
    "country": "PG",
    "type": "small_airport",
    "latitude": -5.13,
    "longitude": 143.4829
  },
  {
    "code": "KOR",
    "name": "Kakoro(Koroko) Airstrip",
    "city": "Kakoro",
    "country": "PG",
    "type": "small_airport",
    "latitude": -7.8346666666700004,
    "longitude": 146.5335
  },
  {
    "code": "MRH",
    "name": "May River Airstrip",
    "city": "May River",
    "country": "PG",
    "type": "small_airport",
    "latitude": -4.3615,
    "longitude": 141.785
  },
  {
    "code": "SBE",
    "name": "Suabi Airport",
    "city": "",
    "country": "PG",
    "type": "small_airport",
    "latitude": -6.10444444444,
    "longitude": 142.278333333
  },
  {
    "code": "SDI",
    "name": "Saidor Airport",
    "city": "Saidor",
    "country": "PG",
    "type": "small_airport",
    "latitude": -5.62713888889,
    "longitude": 146.462777778
  },
  {
    "code": "NIS",
    "name": "Simberi Airport",
    "city": "Simberi Island",
    "country": "PG",
    "type": "small_airport",
    "latitude": -2.66222222222,
    "longitude": 151.997777778
  },
  {
    "code": "SFU",
    "name": "Safia Airport",
    "city": "Safia",
    "country": "PG",
    "type": "small_airport",
    "latitude": -9.59305555556,
    "longitude": 148.636111111
  },
  {
    "code": "SIL",
    "name": "Sila Airport",
    "city": "Sila Mission",
    "country": "PG",
    "type": "small_airport",
    "latitude": -9.07355555556,
    "longitude": 148.38925
  },
  {
    "code": "SBV",
    "name": "Sabah Airport",
    "city": "Sabah",
    "country": "PG",
    "type": "small_airport",
    "latitude": -5.5765,
    "longitude": 155.0489
  },
  {
    "code": "SIM",
    "name": "Simbai Airport",
    "city": "Simbai",
    "country": "PG",
    "type": "small_airport",
    "latitude": -5.278611111110001,
    "longitude": 144.544722222
  },
  {
    "code": "SGK",
    "name": "Sengapi Airstrip",
    "city": "Sengapi",
    "country": "PG",
    "type": "small_airport",
    "latitude": -5.12583333333,
    "longitude": 144.323611111
  },
  {
    "code": "SXH",
    "name": "Sehulea Airport",
    "city": "Sehulea",
    "country": "PG",
    "type": "small_airport",
    "latitude": -9.96452777778,
    "longitude": 151.161861111
  },
  {
    "code": "SBC",
    "name": "Selbang Airport",
    "city": "Selbang",
    "country": "PG",
    "type": "small_airport",
    "latitude": -5.315,
    "longitude": 141.752
  },
  {
    "code": "SMH",
    "name": "Sapmanga Airport",
    "city": "Sapmanga",
    "country": "PG",
    "type": "small_airport",
    "latitude": -6.075277777779999,
    "longitude": 146.811111111
  },
  {
    "code": "SPV",
    "name": "Sepik Plains Airport",
    "city": "Sepik Plains",
    "country": "PG",
    "type": "small_airport",
    "latitude": -3.8821,
    "longitude": 143.6734
  },
  {
    "code": "TDS",
    "name": "Sasereme Airport",
    "city": "Sasereme",
    "country": "PG",
    "type": "small_airport",
    "latitude": -7.6217,
    "longitude": 142.868
  },
  {
    "code": "SKC",
    "name": "Suki Airport",
    "city": "Suki",
    "country": "PG",
    "type": "small_airport",
    "latitude": -8.0466,
    "longitude": 141.7222
  },
  {
    "code": "SXW",
    "name": "Sauren Airport",
    "city": "Sauren",
    "country": "PG",
    "type": "small_airport",
    "latitude": -5.9701,
    "longitude": 148.8543
  },
  {
    "code": "SWG",
    "name": "Satwag Airport",
    "city": "Satwag",
    "country": "PG",
    "type": "small_airport",
    "latitude": -6.13955555556,
    "longitude": 147.279166667
  },
  {
    "code": "MBV",
    "name": "Masa Airport",
    "city": "Masa",
    "country": "PG",
    "type": "small_airport",
    "latitude": -6.345,
    "longitude": 147.591
  },
  {
    "code": "TIZ",
    "name": "Tari Airport",
    "city": "Tari",
    "country": "PG",
    "type": "small_airport",
    "latitude": -5.845,
    "longitude": 142.947998
  },
  {
    "code": "TBG",
    "name": "Tabubil Airport",
    "city": "Tabubil",
    "country": "PG",
    "type": "small_airport",
    "latitude": -5.280471,
    "longitude": 141.227576
  },
  {
    "code": "TFM",
    "name": "Telefomin Airport",
    "city": "Telefomin",
    "country": "PG",
    "type": "small_airport",
    "latitude": -5.12608,
    "longitude": 141.641922
  },
  {
    "code": "TDB",
    "name": "Tetebedi Airport",
    "city": "Tetebedi",
    "country": "PG",
    "type": "small_airport",
    "latitude": -9.1586,
    "longitude": 148.0686
  },
  {
    "code": "TGL",
    "name": "Tagula Airport",
    "city": "Sudest Island",
    "country": "PG",
    "type": "small_airport",
    "latitude": -11.3311111111,
    "longitude": 153.202916667
  },
  {
    "code": "TFB",
    "name": "Tifalmin Airport",
    "city": "Tifalmin",
    "country": "PG",
    "type": "small_airport",
    "latitude": -5.117249,
    "longitude": 141.418076
  },
  {
    "code": "TPI",
    "name": "Tapini Airport",
    "city": "Tapini",
    "country": "PG",
    "type": "small_airport",
    "latitude": -8.35666666667,
    "longitude": 146.989166667
  },
  {
    "code": "RAB",
    "name": "Tokua Airport",
    "city": "Kokopo",
    "country": "PG",
    "type": "medium_airport",
    "latitude": -4.34046,
    "longitude": 152.380005
  },
  {
    "code": "TKW",
    "name": "Tekin Airport",
    "city": "Tekin",
    "country": "PG",
    "type": "small_airport",
    "latitude": -5.243667,
    "longitude": 142.165194
  },
  {
    "code": "KDQ",
    "name": "Kamberatoro Airport",
    "city": "Kamberatoro Mission",
    "country": "PG",
    "type": "small_airport",
    "latitude": -3.600556,
    "longitude": 141.051667
  },
  {
    "code": "TEP",
    "name": "Tep Tep Airport",
    "city": "Teptep",
    "country": "PG",
    "type": "small_airport",
    "latitude": -5.9553,
    "longitude": 146.5595
  },
  {
    "code": "TBQ",
    "name": "Tarabo Airport",
    "city": "Tarabo",
    "country": "PG",
    "type": "small_airport",
    "latitude": -6.46666666667,
    "longitude": 145.532222222
  },
  {
    "code": "TSW",
    "name": "Tsewi Airport",
    "city": "Tsewi",
    "country": "PG",
    "type": "small_airport",
    "latitude": -7.0695,
    "longitude": 146.1272
  },
  {
    "code": "TRJ",
    "name": "Tarakbits Airport",
    "city": "Tarakbits",
    "country": "PG",
    "type": "small_airport",
    "latitude": -5.614,
    "longitude": 141.0421
  },
  {
    "code": "TFI",
    "name": "Tufi Airport",
    "city": "Tufi",
    "country": "PG",
    "type": "small_airport",
    "latitude": -9.07595443726,
    "longitude": 149.319839478
  },
  {
    "code": "TBE",
    "name": "Timbunke Airport",
    "city": "Timbunke",
    "country": "PG",
    "type": "small_airport",
    "latitude": -4.196633,
    "longitude": 143.519222
  },
  {
    "code": "TWY",
    "name": "Tawa Airport",
    "city": "Tawa",
    "country": "PG",
    "type": "small_airport",
    "latitude": -7.4463,
    "longitude": 146.1067
  },
  {
    "code": "TEO",
    "name": "Terapo Airport",
    "city": "Terapo Mission",
    "country": "PG",
    "type": "small_airport",
    "latitude": -8.16972222222,
    "longitude": 146.194444444
  },
  {
    "code": "TKB",
    "name": "Tekadu Airport",
    "city": "Tekadu",
    "country": "PG",
    "type": "small_airport",
    "latitude": -7.6808,
    "longitude": 146.5503
  },
  {
    "code": "UMC",
    "name": "Umba Airport",
    "city": "Umba",
    "country": "PG",
    "type": "small_airport",
    "latitude": -7.0214,
    "longitude": 145.966
  },
  {
    "code": "URU",
    "name": "Uroubi Airport",
    "city": "Uroubi",
    "country": "PG",
    "type": "small_airport",
    "latitude": -9.5162,
    "longitude": 148.5591
  },
  {
    "code": "UBI",
    "name": "Buin Airport",
    "city": "Buin",
    "country": "PG",
    "type": "small_airport",
    "latitude": -6.72916666667,
    "longitude": 155.683333333
  },
  {
    "code": "AUV",
    "name": "Aumo Airport",
    "city": "Aumo",
    "country": "PG",
    "type": "small_airport",
    "latitude": -5.731111111110001,
    "longitude": 148.445277778
  },
  {
    "code": "GLP",
    "name": "Gulgubip Airport",
    "city": "Gulgubip",
    "country": "PG",
    "type": "small_airport",
    "latitude": -5.2808,
    "longitude": 141.5411
  },
  {
    "code": "UPR",
    "name": "Upiara Airport",
    "city": "Upiara",
    "country": "PG",
    "type": "small_airport",
    "latitude": -8.5411,
    "longitude": 142.6503
  },
  {
    "code": "KUX",
    "name": "Kuyol Airport",
    "city": "",
    "country": "PG",
    "type": "small_airport",
    "latitude": -5.372361111110001,
    "longitude": 141.623888889
  },
  {
    "code": "UVO",
    "name": "Uvol Airport",
    "city": "Uvol",
    "country": "PG",
    "type": "small_airport",
    "latitude": -6.0178,
    "longitude": 150.9557
  },
  {
    "code": "TLW",
    "name": "Talasea Airport",
    "city": "Talasea",
    "country": "PG",
    "type": "small_airport",
    "latitude": -5.2726,
    "longitude": 150.0089
  },
  {
    "code": "TCJ",
    "name": "Torembi Airport",
    "city": "Torembi",
    "country": "PG",
    "type": "small_airport",
    "latitude": -4.0165,
    "longitude": 143.1329
  },
  {
    "code": "VAI",
    "name": "Vanimo Airport",
    "city": "Vanimo",
    "country": "PG",
    "type": "medium_airport",
    "latitude": -2.6926,
    "longitude": 141.3028
  },
  {
    "code": "TON",
    "name": "Tonu Airport",
    "city": "Tonu",
    "country": "PG",
    "type": "small_airport",
    "latitude": -6.6552,
    "longitude": 155.4326
  },
  {
    "code": "WUV",
    "name": "Wuvulu Island Airport",
    "city": "Wuvulu Island",
    "country": "PG",
    "type": "small_airport",
    "latitude": -1.73611111111,
    "longitude": 142.836666667
  },
  {
    "code": "WAO",
    "name": "Wabo Airport",
    "city": "Wabo",
    "country": "PG",
    "type": "small_airport",
    "latitude": -6.98944444444,
    "longitude": 145.075111111
  },
  {
    "code": "WTT",
    "name": "Wantoat Airport",
    "city": "Wantoat",
    "country": "PG",
    "type": "small_airport",
    "latitude": -6.1325,
    "longitude": 146.467777778
  },
  {
    "code": "WBM",
    "name": "Wapenamanda Airport",
    "city": "Wapenamanda",
    "country": "PG",
    "type": "medium_airport",
    "latitude": -5.635293,
    "longitude": 143.892231
  },
  {
    "code": "WAJ",
    "name": "Wawoi Falls Airport",
    "city": "Wavoi Falls",
    "country": "PG",
    "type": "small_airport",
    "latitude": -6.9523,
    "longitude": 142.6557
  },
  {
    "code": "AGL",
    "name": "Wanigela Airport",
    "city": "Wanigela",
    "country": "PG",
    "type": "small_airport",
    "latitude": -9.3375,
    "longitude": 149.155556
  },
  {
    "code": "WNU",
    "name": "Wanuma Airport",
    "city": "Wanuma",
    "country": "PG",
    "type": "small_airport",
    "latitude": -4.8961,
    "longitude": 145.3213
  },
  {
    "code": "WBC",
    "name": "Wapolu Airport",
    "city": "Wapolu",
    "country": "PG",
    "type": "small_airport",
    "latitude": -9.3376,
    "longitude": 150.5093
  },
  {
    "code": "WWK",
    "name": "Wewak International Airport",
    "city": "Wewak",
    "country": "PG",
    "type": "medium_airport",
    "latitude": -3.58383011818,
    "longitude": 143.669006348
  },
  {
    "code": "WOA",
    "name": "Wonenara Airport",
    "city": "Wonenara",
    "country": "PG",
    "type": "small_airport",
    "latitude": -6.796861111110001,
    "longitude": 145.891944444
  },
  {
    "code": "WKN",
    "name": "Wakunai Airport",
    "city": "Wakunai",
    "country": "PG",
    "type": "small_airport",
    "latitude": -5.8603,
    "longitude": 155.2223
  },
  {
    "code": "WSU",
    "name": "Wasu Airport",
    "city": "Wasu",
    "country": "PG",
    "type": "small_airport",
    "latitude": -5.96170944919,
    "longitude": 147.19822526
  },
  {
    "code": "WTP",
    "name": "Woitape Airport",
    "city": "Fatima Mission",
    "country": "PG",
    "type": "small_airport",
    "latitude": -8.545833,
    "longitude": 147.2525
  },
  {
    "code": "WUG",
    "name": "Wau Airport",
    "city": "Wau",
    "country": "PG",
    "type": "small_airport",
    "latitude": -7.345556,
    "longitude": 146.718611
  },
  {
    "code": "YVD",
    "name": "Yeva Airport",
    "city": "Yeva",
    "country": "PG",
    "type": "small_airport",
    "latitude": -7.548,
    "longitude": 146.188
  },
  {
    "code": "SMJ",
    "name": "Sim Airport",
    "city": "Sim",
    "country": "PG",
    "type": "small_airport",
    "latitude": -7.75,
    "longitude": 146.9273
  },
  {
    "code": "TLO",
    "name": "Tol Airport",
    "city": "Tol",
    "country": "PG",
    "type": "small_airport",
    "latitude": -4.98083019257,
    "longitude": 152.009994507
  },
  {
    "code": "WPM",
    "name": "Wipim Airport",
    "city": "Wipim",
    "country": "PG",
    "type": "small_airport",
    "latitude": -8.78822,
    "longitude": 142.882004
  },
  {
    "code": "WEP",
    "name": "Weam Airport",
    "city": "Weam",
    "country": "PG",
    "type": "small_airport",
    "latitude": -8.6184,
    "longitude": 141.1381
  },
  {
    "code": "KYX",
    "name": "Yalumet Airport",
    "city": "Yalumet",
    "country": "PG",
    "type": "small_airport",
    "latitude": -6.09,
    "longitude": 147.0117
  },
  {
    "code": "YEQ",
    "name": "Yenkis(Yankisa) Airport",
    "city": "",
    "country": "PG",
    "type": "small_airport",
    "latitude": -5.10972222222,
    "longitude": 143.917666667
  },
  {
    "code": "TCK",
    "name": "Tinboli Airport",
    "city": "Tinboli",
    "country": "PG",
    "type": "small_airport",
    "latitude": -4.0949,
    "longitude": 143.3838
  },
  {
    "code": "LNF",
    "name": "Munbil Airport",
    "city": "",
    "country": "PG",
    "type": "small_airport",
    "latitude": -4.855941,
    "longitude": 141.220165
  },
  {
    "code": "RAX",
    "name": "Oram Airport",
    "city": "",
    "country": "PG",
    "type": "small_airport",
    "latitude": -9.632916666669997,
    "longitude": 148.048055556
  },
  {
    "code": "KPE",
    "name": "Yapsiei Airport",
    "city": "",
    "country": "PG",
    "type": "small_airport",
    "latitude": -4.6280555555600005,
    "longitude": 141.094166667
  },
  {
    "code": "KSX",
    "name": "Yasuru Airport",
    "city": "Yasuru",
    "country": "PG",
    "type": "small_airport",
    "latitude": -6.6015,
    "longitude": 146.1813
  },
  {
    "code": "ZEN",
    "name": "Zenag Airport",
    "city": "Zenag",
    "country": "PG",
    "type": "small_airport",
    "latitude": -6.9522222222200005,
    "longitude": 146.61625
  },
  {
    "code": "SWR",
    "name": "Silur Airport",
    "city": "Silur Mission",
    "country": "PG",
    "type": "small_airport",
    "latitude": -4.5298888888899995,
    "longitude": 153.054444444
  },
  {
    "code": "WUM",
    "name": "Wasum Airport",
    "city": "Wasum",
    "country": "PG",
    "type": "small_airport",
    "latitude": -6.0491,
    "longitude": 149.337
  },
  {
    "code": "SIZ",
    "name": "Sissano Airport",
    "city": "Sissano",
    "country": "PG",
    "type": "small_airport",
    "latitude": -2.99944444444,
    "longitude": 142.0445
  },
  {
    "code": "OSG",
    "name": "Ossima Airport",
    "city": "Ossima",
    "country": "PG",
    "type": "small_airport",
    "latitude": -2.91555555556,
    "longitude": 141.297305556
  },
  {
    "code": "ZXT",
    "name": "Zabrat Airport",
    "city": "Zabrat",
    "country": "AZ",
    "type": "medium_airport",
    "latitude": 40.494884,
    "longitude": 49.977065
  },
  {
    "code": "AZB",
    "name": "Amazon Bay Airport",
    "city": "",
    "country": "PG",
    "type": "small_airport",
    "latitude": -10.2991666667,
    "longitude": 149.338333333
  },
  {
    "code": "BAJ",
    "name": "Bali Airport",
    "city": "Unea Island",
    "country": "PG",
    "type": "small_airport",
    "latitude": -4.8833333333299995,
    "longitude": 149.133333333
  },
  {
    "code": "BCW",
    "name": "Benguera Island Airport",
    "city": "Benguera Island",
    "country": "MZ",
    "type": "medium_airport",
    "latitude": -21.8533,
    "longitude": 35.438301
  },
  {
    "code": "BCZ",
    "name": "Milyakburra Airport",
    "city": "Bickerton Island",
    "country": "AU",
    "type": "small_airport",
    "latitude": -13.780833333299999,
    "longitude": 136.201666667
  },
  {
    "code": "JAM",
    "name": "Bezmer Air Base",
    "city": "Bezmer",
    "country": "BG",
    "type": "medium_airport",
    "latitude": 42.454899,
    "longitude": 26.3522
  },
  {
    "code": "JEG",
    "name": "Aasiaat Airport",
    "city": "Aasiaat",
    "country": "GL",
    "type": "medium_airport",
    "latitude": 68.721802,
    "longitude": -52.784698
  },
  {
    "code": "UAK",
    "name": "Narsarsuaq Airport",
    "city": "Narsarsuaq",
    "country": "GL",
    "type": "medium_airport",
    "latitude": 61.1605,
    "longitude": -45.425999
  },
  {
    "code": "CNP",
    "name": "Neerlerit Inaat Airport",
    "city": "Neerlerit Inaat",
    "country": "GL",
    "type": "small_airport",
    "latitude": 70.743103,
    "longitude": -22.650499
  },
  {
    "code": "GOH",
    "name": "Nuuk Airport",
    "city": "Nuuk",
    "country": "GL",
    "type": "medium_airport",
    "latitude": 64.191066,
    "longitude": -51.67914
  },
  {
    "code": "JAV",
    "name": "Ilulissat Airport",
    "city": "Ilulissat",
    "country": "GL",
    "type": "medium_airport",
    "latitude": 69.243202,
    "longitude": -51.057098
  },
  {
    "code": "KUS",
    "name": "Kulusuk Airport",
    "city": "Kulusuk",
    "country": "GL",
    "type": "medium_airport",
    "latitude": 65.573601,
    "longitude": -37.1236
  },
  {
    "code": "JSU",
    "name": "Maniitsoq Airport",
    "city": "Maniitsoq",
    "country": "GL",
    "type": "small_airport",
    "latitude": 65.412498,
    "longitude": -52.9394
  },
  {
    "code": "JFR",
    "name": "Paamiut Airport",
    "city": "Paamiut",
    "country": "GL",
    "type": "small_airport",
    "latitude": 62.014736,
    "longitude": -49.670937
  },
  {
    "code": "NAQ",
    "name": "Qaanaaq Airport",
    "city": "Qaanaaq",
    "country": "GL",
    "type": "small_airport",
    "latitude": 77.488602,
    "longitude": -69.388702
  },
  {
    "code": "SFJ",
    "name": "Kangerlussuaq Airport",
    "city": "Kangerlussuaq",
    "country": "GL",
    "type": "medium_airport",
    "latitude": 67.010446,
    "longitude": -50.715294
  },
  {
    "code": "JHS",
    "name": "Sisimiut Airport",
    "city": "Sisimiut",
    "country": "GL",
    "type": "medium_airport",
    "latitude": 66.951302,
    "longitude": -53.729301
  },
  {
    "code": "THU",
    "name": "Pituffik Space Base",
    "city": "Pituffik",
    "country": "GL",
    "type": "medium_airport",
    "latitude": 76.531197,
    "longitude": -68.703201
  },
  {
    "code": "JUV",
    "name": "Upernavik Airport",
    "city": "Upernavik",
    "country": "GL",
    "type": "small_airport",
    "latitude": 72.790199,
    "longitude": -56.1306
  },
  {
    "code": "JQA",
    "name": "Qaarsut Airport",
    "city": "Uummannaq",
    "country": "GL",
    "type": "small_airport",
    "latitude": 70.7342,
    "longitude": -52.696201
  },
  {
    "code": "BHL",
    "name": "Bahía de los Ángeles Airport",
    "city": "Ensenada",
    "country": "MX",
    "type": "small_airport",
    "latitude": 28.9786,
    "longitude": -113.560997
  },
  {
    "code": "BHT",
    "name": "Brighton Downs Airport",
    "city": "Brighton Downs",
    "country": "AU",
    "type": "small_airport",
    "latitude": -23.363333,
    "longitude": 141.562778
  },
  {
    "code": "AEY",
    "name": "Akureyri Airport",
    "city": "Akureyri",
    "country": "IS",
    "type": "medium_airport",
    "latitude": 65.656573,
    "longitude": -18.072018
  },
  {
    "code": "BIU",
    "name": "Bildudalur Airport",
    "city": "Bildudalur",
    "country": "IS",
    "type": "small_airport",
    "latitude": 65.641296,
    "longitude": -23.5462
  },
  {
    "code": "BGJ",
    "name": "Borgarfjörður eystri Airport",
    "city": "Borgarfjörður eystri",
    "country": "IS",
    "type": "small_airport",
    "latitude": 65.516769,
    "longitude": -13.81578
  },
  {
    "code": "BJD",
    "name": "Bakkafjörður Airport",
    "city": "Bakkafjörður",
    "country": "IS",
    "type": "small_airport",
    "latitude": 66.02189636230469,
    "longitude": -14.824399948120117
  },
  {
    "code": "BLO",
    "name": "Blönduós Airport",
    "city": "Blönduós",
    "country": "IS",
    "type": "small_airport",
    "latitude": 65.644997,
    "longitude": -20.2875
  },
  {
    "code": "BXV",
    "name": "Breiðdalsvík Airport",
    "city": "Breiðdalsvík",
    "country": "IS",
    "type": "small_airport",
    "latitude": 64.790037,
    "longitude": -14.043927
  },
  {
    "code": "DJU",
    "name": "Djúpivogur Airport",
    "city": "Djúpivogur",
    "country": "IS",
    "type": "small_airport",
    "latitude": 64.642372,
    "longitude": -14.277297
  },
  {
    "code": "EGS",
    "name": "Egilsstaðir Airport",
    "city": "Egilsstaðir",
    "country": "IS",
    "type": "medium_airport",
    "latitude": 65.2833023071289,
    "longitude": -14.401399612426758
  },
  {
    "code": "FAS",
    "name": "Fáskrúðsfjörður Airport",
    "city": "Fáskrúðsfjörður",
    "country": "IS",
    "type": "small_airport",
    "latitude": 64.931456,
    "longitude": -14.047957
  },
  {
    "code": "FAG",
    "name": "Fagurhólsmýri Airport",
    "city": "Fagurhólsmýri",
    "country": "IS",
    "type": "small_airport",
    "latitude": 63.874699,
    "longitude": -16.6411
  },
  {
    "code": "GUU",
    "name": "Grundarfjörður Airport",
    "city": "Grundarfjörður",
    "country": "IS",
    "type": "small_airport",
    "latitude": 64.991402,
    "longitude": -23.224701
  },
  {
    "code": "GJR",
    "name": "Gjögur Airport",
    "city": "Gjögur",
    "country": "IS",
    "type": "small_airport",
    "latitude": 65.9953,
    "longitude": -21.3269
  },
  {
    "code": "GRY",
    "name": "Grímsey Airport",
    "city": "Grímsey",
    "country": "IS",
    "type": "small_airport",
    "latitude": 66.5458,
    "longitude": -18.0173
  },
  {
    "code": "HVK",
    "name": "Hólmavík Airport",
    "city": "Hólmavík",
    "country": "IS",
    "type": "small_airport",
    "latitude": 65.704697,
    "longitude": -21.6964
  },
  {
    "code": "HFN",
    "name": "Hornafjörður Airport",
    "city": "Höfn",
    "country": "IS",
    "type": "medium_airport",
    "latitude": 64.295601,
    "longitude": -15.2272
  },
  {
    "code": "FLI",
    "name": "Holt Airport",
    "city": "Flateyri",
    "country": "IS",
    "type": "small_airport",
    "latitude": 66.0141804294,
    "longitude": -23.4416913986
  },
  {
    "code": "HZK",
    "name": "Húsavík Airport",
    "city": "Húsavík",
    "country": "IS",
    "type": "medium_airport",
    "latitude": 65.952301,
    "longitude": -17.426001
  },
  {
    "code": "HLO",
    "name": "Ingjaldssanður Airport",
    "city": "Onundarfjörður",
    "country": "IS",
    "type": "small_airport",
    "latitude": 66.05000305175781,
    "longitude": -23.69610023498535
  },
  {
    "code": "IFJ",
    "name": "Ísafjörður Airport",
    "city": "Ísafjörður",
    "country": "IS",
    "type": "medium_airport",
    "latitude": 66.058098,
    "longitude": -23.1353
  },
  {
    "code": "KEF",
    "name": "Keflavik International Airport",
    "city": "Reykjavík",
    "country": "IS",
    "type": "large_airport",
    "latitude": 63.985001,
    "longitude": -22.6056
  },
  {
    "code": "OPA",
    "name": "Kópasker Airport",
    "city": "Kópasker",
    "country": "IS",
    "type": "small_airport",
    "latitude": 66.310799,
    "longitude": -16.4667
  },
  {
    "code": "SAK",
    "name": "Sauðárkrókur Airport",
    "city": "Sauðárkrókur",
    "country": "IS",
    "type": "small_airport",
    "latitude": 65.73169708249999,
    "longitude": -19.572799682599996
  },
  {
    "code": "NOR",
    "name": "Norðfjörður Airport",
    "city": "Norðfjörður",
    "country": "IS",
    "type": "small_airport",
    "latitude": 65.131897,
    "longitude": -13.7464
  },
  {
    "code": "OFJ",
    "name": "Ólafsfjörður Airport",
    "city": "Ólafsfjörður",
    "country": "IS",
    "type": "small_airport",
    "latitude": 66.083298,
    "longitude": -18.6667
  },
  {
    "code": "PFJ",
    "name": "Patreksfjörður Airport",
    "city": "Patreksfjörður",
    "country": "IS",
    "type": "small_airport",
    "latitude": 65.555801,
    "longitude": -23.965
  },
  {
    "code": "RHA",
    "name": "Reykhólar Airport",
    "city": "Reykhólar",
    "country": "IS",
    "type": "small_airport",
    "latitude": 65.45262908935547,
    "longitude": -22.20611572265625
  },
  {
    "code": "OLI",
    "name": "Rif Airport",
    "city": "Rif",
    "country": "IS",
    "type": "small_airport",
    "latitude": 64.9114,
    "longitude": -23.823099
  },
  {
    "code": "RFN",
    "name": "Raufarhöfn Airport",
    "city": "Raufarhöfn",
    "country": "IS",
    "type": "small_airport",
    "latitude": 66.406403,
    "longitude": -15.9183
  },
  {
    "code": "RKV",
    "name": "Reykjavík Domestic Airport",
    "city": "Reykjavík",
    "country": "IS",
    "type": "medium_airport",
    "latitude": 64.128732,
    "longitude": -21.93759
  },
  {
    "code": "MVA",
    "name": "Reykjahlíð Airport",
    "city": "Myvatn",
    "country": "IS",
    "type": "small_airport",
    "latitude": 65.6558,
    "longitude": -16.9181
  },
  {
    "code": "SIJ",
    "name": "Siglufjörður Airport",
    "city": "Siglufjörður",
    "country": "IS",
    "type": "medium_airport",
    "latitude": 66.137847,
    "longitude": -18.908157
  },
  {
    "code": "SYK",
    "name": "Stykkishólmur Airport",
    "city": "Stykkishólmur",
    "country": "IS",
    "type": "small_airport",
    "latitude": 65.058851,
    "longitude": -22.764616
  },
  {
    "code": "TEY",
    "name": "Þingeyri Airport",
    "city": "Þingeyri",
    "country": "IS",
    "type": "small_airport",
    "latitude": 65.8703,
    "longitude": -23.559999
  },
  {
    "code": "THO",
    "name": "Þórshöfn Airport",
    "city": "Þórshöfn",
    "country": "IS",
    "type": "small_airport",
    "latitude": 66.218498,
    "longitude": -15.3356
  },
  {
    "code": "VEY",
    "name": "Vestmannaeyjar Airport",
    "city": "Vestmannaeyjar",
    "country": "IS",
    "type": "medium_airport",
    "latitude": 63.42430114746094,
    "longitude": -20.278900146484375
  },
  {
    "code": "VPN",
    "name": "Vopnafjörður Airport",
    "city": "Vopnafjörður",
    "country": "IS",
    "type": "small_airport",
    "latitude": 65.720596,
    "longitude": -14.8506
  },
  {
    "code": "BJE",
    "name": "Baleela Airport",
    "city": "Baleela Base Camp",
    "country": "SD",
    "type": "small_airport",
    "latitude": 11.199444444400001,
    "longitude": 28.5230555556
  },
  {
    "code": "BJQ",
    "name": "Bahja Airport",
    "city": "Bahja",
    "country": "OM",
    "type": "small_airport",
    "latitude": 19.8730555556,
    "longitude": 56.067777777799996
  },
  {
    "code": "PRN",
    "name": "Priština Adem Jashari International Airport",
    "city": "Prishtina",
    "country": "XK",
    "type": "medium_airport",
    "latitude": 42.5728,
    "longitude": 21.035801
  },
  {
    "code": "BMQ",
    "name": "Bamburi Airport",
    "city": "Bamburi",
    "country": "KE",
    "type": "small_airport",
    "latitude": -3.983363,
    "longitude": 39.730982
  },
  {
    "code": "BNV",
    "name": "Boana Airport",
    "city": "Boana",
    "country": "PG",
    "type": "small_airport",
    "latitude": -6.426631,
    "longitude": 146.826697
  },
  {
    "code": "BVL",
    "name": "Baures Airport",
    "city": "Baures",
    "country": "BO",
    "type": "small_airport",
    "latitude": -13.654426,
    "longitude": -63.704718
  },
  {
    "code": "BOV",
    "name": "Boang Airport",
    "city": "Boang Island",
    "country": "PG",
    "type": "small_airport",
    "latitude": -3.3834,
    "longitude": 153.2812
  },
  {
    "code": "CJZ",
    "name": "Pedro Vieira Moreira Airport",
    "city": "Cajazeiras",
    "country": "BR",
    "type": "small_airport",
    "latitude": -6.8827,
    "longitude": -38.61583
  },
  {
    "code": "VDC",
    "name": "Glauber de Andrade Rocha Airport",
    "city": "Vitória da Conquista",
    "country": "BR",
    "type": "medium_airport",
    "latitude": -14.907885,
    "longitude": -40.914804
  },
  {
    "code": "CMP",
    "name": "Santana do Araguaia Airport",
    "city": "Santana do Araguaia",
    "country": "BR",
    "type": "small_airport",
    "latitude": -9.319906,
    "longitude": -50.328536
  },
  {
    "code": "AAI",
    "name": "Arraias Airport",
    "city": "Arraias",
    "country": "BR",
    "type": "small_airport",
    "latitude": -13.025154,
    "longitude": -46.884107
  },
  {
    "code": "ITN",
    "name": "Tertuliano Guedes de Pinho Airport",
    "city": "Itabuna",
    "country": "BR",
    "type": "small_airport",
    "latitude": -14.8105,
    "longitude": -39.290401
  },
  {
    "code": "LEP",
    "name": "Leopoldina Airport",
    "city": "Leopoldina",
    "country": "BR",
    "type": "small_airport",
    "latitude": -21.468226,
    "longitude": -42.727076
  },
  {
    "code": "CPU",
    "name": "Cururupu Airport",
    "city": "Cururupu",
    "country": "BR",
    "type": "small_airport",
    "latitude": -1.820006,
    "longitude": -44.864065
  },
  {
    "code": "CTQ",
    "name": "Santa Vitória do Palmar Airport",
    "city": "Santa Vitória do Palmar",
    "country": "BR",
    "type": "small_airport",
    "latitude": -33.502038,
    "longitude": -53.344911
  },
  {
    "code": "APY",
    "name": "Alto Parnaíba Airport",
    "city": "Alto Parnaíba",
    "country": "BR",
    "type": "small_airport",
    "latitude": -9.08533,
    "longitude": -45.955603
  },
  {
    "code": "JRN",
    "name": "Juruena Airport",
    "city": "Juruena",
    "country": "BR",
    "type": "small_airport",
    "latitude": -10.305833,
    "longitude": -58.489445
  },
  {
    "code": "STZ",
    "name": "Santa Terezinha Airport",
    "city": "Santa Terezinha",
    "country": "BR",
    "type": "small_airport",
    "latitude": -10.464722,
    "longitude": -50.518612
  },
  {
    "code": "MTG",
    "name": "Vila Bela da Santíssima Trindade Airport",
    "city": "Vila Bela Da Santíssima Trindade",
    "country": "BR",
    "type": "small_airport",
    "latitude": -14.995499,
    "longitude": -59.945662
  },
  {
    "code": "ALT",
    "name": "Alenquer Municipal Airport",
    "city": "Alenquer",
    "country": "BR",
    "type": "small_airport",
    "latitude": -1.917,
    "longitude": -54.7231
  },
  {
    "code": "BSV",
    "name": "Besakoa Airport",
    "city": "Besakoa",
    "country": "MG",
    "type": "small_airport",
    "latitude": -15.6725,
    "longitude": 47.061667
  },
  {
    "code": "BTZ",
    "name": "Betong International Airport",
    "city": "Betong",
    "country": "TH",
    "type": "medium_airport",
    "latitude": 5.79,
    "longitude": 101.15
  },
  {
    "code": "HUK",
    "name": "Hukuntsi Airport",
    "city": "Hukuntsi",
    "country": "BW",
    "type": "small_airport",
    "latitude": -23.9897,
    "longitude": 21.758101
  },
  {
    "code": "BWJ",
    "name": "Bawan Airport",
    "city": "",
    "country": "PG",
    "type": "small_airport",
    "latitude": -6.396944444440001,
    "longitude": 146.881666667
  },
  {
    "code": "TXC",
    "name": "Orsha Airport - Balbasovo Air Base",
    "city": "Orsha",
    "country": "BY",
    "type": "medium_airport",
    "latitude": 54.439999,
    "longitude": 30.2967
  },
  {
    "code": "BYA",
    "name": "Boundary Airport",
    "city": "Boundary",
    "country": "US",
    "type": "small_airport",
    "latitude": 64.077678,
    "longitude": -141.122088
  },
  {
    "code": "BYL",
    "name": "Bella Yella Airport",
    "city": "Beliyela",
    "country": "LR",
    "type": "small_airport",
    "latitude": 7.36916666667,
    "longitude": -9.99372222222
  },
  {
    "code": "BCV",
    "name": "Hector Silva Airstrip",
    "city": "Belmopan",
    "country": "BZ",
    "type": "small_airport",
    "latitude": 17.269603,
    "longitude": -88.776496
  },
  {
    "code": "BGK",
    "name": "Big Creek Airport",
    "city": "Big Creek",
    "country": "BZ",
    "type": "small_airport",
    "latitude": 16.519369,
    "longitude": -88.407913
  },
  {
    "code": "CUK",
    "name": "Caye Caulker Airport",
    "city": "Caye Caulker",
    "country": "BZ",
    "type": "medium_airport",
    "latitude": 17.735015,
    "longitude": -88.032862
  },
  {
    "code": "CYC",
    "name": "Caye Chapel Airport",
    "city": "Caye Chapel",
    "country": "BZ",
    "type": "medium_airport",
    "latitude": 17.683792,
    "longitude": -88.044985
  },
  {
    "code": "CZH",
    "name": "Corozal Airport",
    "city": "Corozal",
    "country": "BZ",
    "type": "medium_airport",
    "latitude": 18.3822,
    "longitude": -88.411903
  },
  {
    "code": "DGA",
    "name": "Dangriga Airport",
    "city": "Dangriga",
    "country": "BZ",
    "type": "medium_airport",
    "latitude": 16.98251,
    "longitude": -88.230988
  },
  {
    "code": "INB",
    "name": "Independence Airport",
    "city": "Independence",
    "country": "BZ",
    "type": "small_airport",
    "latitude": 16.53456,
    "longitude": -88.441615
  },
  {
    "code": "MDB",
    "name": "Melinda Airport",
    "city": "Melinda",
    "country": "BZ",
    "type": "small_airport",
    "latitude": 17.004299,
    "longitude": -88.304199
  },
  {
    "code": "ORZ",
    "name": "H.E Alfredo Martinez (Tower Hill) Airstrip",
    "city": "Orange Walk",
    "country": "BZ",
    "type": "small_airport",
    "latitude": 18.046767,
    "longitude": -88.583858
  },
  {
    "code": "PND",
    "name": "Punta Gorda Airport",
    "city": "Punta Gorda",
    "country": "BZ",
    "type": "medium_airport",
    "latitude": 16.1024,
    "longitude": -88.808296
  },
  {
    "code": "SJX",
    "name": "Sartaneja Airport",
    "city": "Sartaneja",
    "country": "BZ",
    "type": "medium_airport",
    "latitude": 18.3561,
    "longitude": -88.130798
  },
  {
    "code": "SPR",
    "name": "John Greif II Airport",
    "city": "San Pedro",
    "country": "BZ",
    "type": "medium_airport",
    "latitude": 17.9139,
    "longitude": -87.9711
  },
  {
    "code": "SQS",
    "name": "Matthew Spain Airport",
    "city": "Spanish Lookout",
    "country": "BZ",
    "type": "small_airport",
    "latitude": 17.185898,
    "longitude": -89.009936
  },
  {
    "code": "STU",
    "name": "Santa Cruz Airport",
    "city": "Santa Cruz",
    "country": "BZ",
    "type": "small_airport",
    "latitude": 18.2721004486084,
    "longitude": -88.456298828125
  },
  {
    "code": "SVK",
    "name": "Silver Creek Airport",
    "city": "Silver Creek",
    "country": "BZ",
    "type": "small_airport",
    "latitude": 16.728338,
    "longitude": -88.369174
  },
  {
    "code": "TZA",
    "name": "Sir Barry Bowen Municipal Airport",
    "city": "Belize City",
    "country": "BZ",
    "type": "medium_airport",
    "latitude": 17.517239,
    "longitude": -88.195775
  },